,Code,Name,City,Postal_Code,Country_Code,Longitude,Latitude,Gmt_Offset,World_Area_Code
1,AAA,Anaa,Anaa,,10,-145.5,-17.4167,10,823
2,AAB,Arrabury,Arrabury,,90,141,-26.75,-10,802
3,AAC,Al Arish International Airport,Al Arish,,70,33.8358,31.0733,2,591
4,AAD,Ad-Dabbah,Ad-Dabbah,,130,33.9592,17.5928,,583
5,AAE,Les Salines,Annaba,,180,8,36.8333,-1,500
6,AAF,Municipal,Apalachicola,32320,70,-85.0333,29.7333,5,67
7,AAG,Arapoti,Arapoti,,140,-49.6667,-24.1667,,316
8,AAH,Aachen/Merzbruck,Aachen,,100,6.1861,50.8231,1,623
9,AAI,Arraias,Arraias,,90,-46.9333,-12.9167,3,316
10,AAJ,Cayana Airstrip,Awaradam,,20,-55.5792,3.8967,-3,379
11,AAK,Aranuka,Aranuka,,120,174,0.2167,-12,824
12,AAL,Aalborg,Aalborg,,90,9.85,57.1,-1,419
13,AAM,Mala Mala,Mala Mala,,100,31.5333,-24.8,-2,562
14,AAN,Al Ain,Al Ain,,190,55.6092,24.2617,4,678
15,AAO,Anaco,Anaco,,80,-64.4667,9.4167,4,388
16,AAP,Andrau Airpark,Houston,77082,50,-95.5883,29.7239,-6,67
17,AAQ,Anapa,Anapa,,160,37.3167,44.9,-2,770
18,AAR,Aarhus Airport,Aarhus,,160,10.6261,56.3072,1,419
19,AAS,Apalapsili,Apalapsili,,70,139.25,-3.9167,-9,832
20,AAT,Altay,Altay,,160,89.5,43.9333,-8,713
21,AAU,Asau,Asau,,20,-172.6,-13.4583,11,892
22,AAV,Allah Valley,Surallah,,20,124.7514,6.3669,8,766
23,AAW,Abbottabad,Abbottabad,,60,73.25,34.2,5,764
24,AAX,Araxa,Araxa,,80,-46.9292,-19.5681,3,316
25,AAY,Al Ghaydah,Al Ghaydah,,210,52.1833,16.2,-3,694
26,AAZ,Ambriz,Ambriz,,40,13.1161,-7.8622,1,127
27,ABA,Abakan,Abakan,,170,91.4333,53.7167,-2,770
28,ABB,RAF Station,Abingdon,,190,-1.2833,51.6667,,493
29,ABC,Los Llanos,Albacete,,160,-1.85,38.9833,,482
30,ABD,Abadan,Abadan,,190,48.2333,30.3667,-3.5,632
31,ABE,Lehigh Valley International,Allentown,18109,150,-75.4403,40.6522,-5,67
32,ABF,Abaiang,Abaiang,,60,172.8333,1.4167,-12,824
33,ABG,Abingdon,Abingdon,,70,143.2,-17.6667,-10,802
34,ABH,Alpha,Alpha,,200,146.5833,-23.7,-10,802
35,ABI,Municipal,Abilene,,200,-99.6833,32.4167,6,67
36,ABJ,Felix Houphouet Boigny,Abidjan,,20,-3.9333,5.25,,533
37,ABK,Kabri Dar,Kabri Dar,,210,44.2667,6.7333,-3,522
38,ABL,Ambler,Ambler,99786,20,-157.8167,67.1,9,67
39,ABM,Bamaga Injinoo,"Bamaga, Queensland",,180,142.4594,-10.9508,-10,802
40,ABN,Albina,Albina,,40,-54.05,5.4833,3,379
41,ABO,Aboisso,Aboisso,,0,-3.2,5.4667,,533
42,ABP,Atkamba,Atkamba,,130,141.1,-6.0667,-10,804
43,ABQ,Albuquerque International,Albuquerque,87106,80,-106.6092,35.0403,-7,67
44,ABR,Municipal,Aberdeen,39730,200,-98.4333,45.45,6,67
45,ABS,Abu Simbel,Abu Simbel,,110,31.6167,22.3667,-2,591
46,ABT,Al-Aqiq,Al-Baha,,180,42.2167,22.8333,-3,670
47,ABU,Atambua,Atambua,,100,124.9,-9.3333,-8,832
48,ABV,Nnamdi Azikiwe International Airport,Abuja,,110,7.2631,9.0067,1,555
49,ABW,Abau,Abau,,180,148.7,-10.1667,-10,804
50,ABX,Albury,Albury,,60,146.95,-36.0667,-10,802
51,ABY,Dougherty County,Albany,31721,110,-84.2,31.5333,5,67
52,ABZ,Dyce,Aberdeen,,160,-2.2,57.2,,493
53,ACA,General Juan N. Alvarez International,Acapulco,,60,-99.7536,16.7569,-6,148
54,ACB,Antrim County,Bellaire,49615,60,-85.2028,44.9833,5,67
55,ACC,Kotoka,Accra,,60,-0.1667,5.6,,529
56,ACD,Acandi,Acandi,,10,-73.6333,8.5,5,327
57,ACE,Lanzarote,Arrecife,,170,-13.6053,28.9456,,482
58,ACH,Altenrhein,Altenrhein,,30,9.55,47.4833,-1,486
59,ACI,The Blaye,Alderney,,60,-2.2167,49.7,,493
60,ACJ,Anuradhapura,Anuradhapura,,20,80.3833,8.35,,711
61,ACK,Nantucket Memorial,Nantucket,2554,210,-70.0667,41.2667,5,67
62,ACL,Aguaclara,Aguaclara,,20,-73,4.75,5,327
63,ACM,Arica,Arica,,120,-71.7833,-2.1333,5,327
64,ACN,International,Ciudad Acuna,,170,-100.9167,29.3,6,148
65,ACO,Ascona,Ascona,,0,8.7667,46.1594,1,486
66,ACP,Sahand,Sahand,,210,46.45,37.7333,,632
67,ACR,Araracuara,Araracuara,,170,-72.3,-0.3833,5,327
68,ACS,Achinsk,Achinsk,,40,90.5667,56.2667,-2,770
69,ACT,Municipal,Waco,,10,-97.2333,31.6167,6,67
70,ACU,Achutupo,Achutupo,,60,-77.9667,8.4333,5,162
71,ACV,Arcata,Arcata,95519,50,-124.1,40.9833,8,67
72,ACX,Xingyi,Xingyi,,70,104.9833,25.05,,713
73,ACY,Atlantic City Intl,Atlantic City,8215,80,-74.5833,39.4667,5,67
74,ACZ,Zabol A/P,Zabol,,70,61.25,31,,632
75,ADA,Adana,Adana,,110,35.2803,36.9822,2,679
76,ADB,Adnan Menderes,Izmir,,130,27.1569,38.2925,-2,679
77,ADC,Andakombe,Andakombe,,70,145.7333,-7.1333,,804
78,ADD,Bole International,Addis Ababa,,30,38.7994,8.9778,3,522
79,ADE,International,Aden,,60,49.4844,16.0386,-3,694
80,ADF,Adiyaman,Adiyaman,,100,34.65,37.9167,,679
81,ADG,Lenawee County,Adrian,49221,200,-84.0333,41.9,5,67
82,ADH,Aldan,Aldan,,90,125.4,58.6,-2,770
83,ADI,Arandis,Arandis,,80,15,-22.4,-2,575
84,ADJ,Marka International Airport,Amman,,30,35.9917,31.9728,2,962
85,ADK,Adak Island Ns,Adak Island,,150,-176.6461,51.8781,10,67
86,ADL,Adelaide International Airport,Adelaide,,0,138.5306,-34.945,9.5,802
87,ADM,Ardmore Municipal Arpt,Ardmore,35620,120,-86.8833,34.9667,6,67
88,ADN,Andes,Andes,,180,-75.8833,5.6667,5,327
89,ADO,Andamooka,Andamooka,,170,137.1372,-30.4378,-9.5,802
90,ADP,Ampara,Ampara,,50,80.4167,8.3,-5.5,711
91,ADQ,Kodiak Airport,Kodiak,99615,160,-152.4833,57.75,9,67
92,ADR,Andrews,Andrews,29510,60,-79.5667,33.45,5,67
93,ADS,Addison Airport,Dallas,75001,160,-96.8364,32.9686,-6,67
94,ADT,Ada Municial,Ada,,110,-96.6711,34.8042,-6,67
95,ADU,Ardabil,Ardabil,,110,48.3014,38.2494,,632
96,ADV,Andover,Andover,,30,-1.4667,51.2167,,493
97,ADW,Andrews AFB,Camp Springs,,160,-76.9167,38.8,5,67
98,ADX,Leuchars,St Andrews,,100,-2.8667,56.3667,,493
99,ADY,Alldays,Alldays,,170,29.1,-22.6667,-2,562
100,ADZ,San Andres Island,San Andres Island,,140,-81.7,12.5833,5,327
101,AEA,Abemama Atoll,Abemama Atoll,,190,173.85,0.4833,-12,824
102,AED,Aleneva,Aleneva,,0,10.0833,-0.6,,67
103,AEG,Aek Godang,Aek Godang,,30,99.45,1.3833,-7,832
104,AEH,Abecher,Abecher,,110,20.85,13.85,-1,511
105,AEK,Aseki,Aseki,,140,146.2833,-7.3667,-10,804
106,AEL,Albert Lea,Albert Lea,,70,-93.3667,43.6833,6,67
107,AEO,Aioun El Atrouss,Aioun El Atrouss,,60,-9.65,16.7,,545
108,AEP,Arpt. Jorge Newbery,Buenos Aires,,180,-58.4156,-34.5592,-3,303
109,AER,Adler/Sochi,Adler/Sochi,,20,39.9333,43.45,2,770
110,AES,Vigra,Aalesund,,70,6.1,62.5603,1,465
111,AET,Allakaket,Allakaket,99720,160,-152.65,66.55,9,67
112,AEU,Abu Musa,Abu Musa,,70,52.5,36.5833,,632
113,AEX,Alexandria International,Alexandria,,0,-92.5486,31.3275,-6,67
114,AEY,Akureyri,Akureyri,,70,-18.0833,65.65,,439
115,AFA,San Rafael,San Rafael,,120,-68.4,-34.5833,4,303
116,AFD,Port Alfred,Port Alfred,,210,26.8833,-33.5833,-2,562
117,AFF,USAF Academy Airstrip,Colorado Springs,80840,200,-104.8131,38.9697,-7,67
118,AFI,Amalfi,Amalfi,,140,-75.0667,6.9167,5,327
119,AFK,Kondavattavan Tank,Ampara,,120,81.6667,7.2833,,711
120,AFL,Alta Floresta,Alta Floresta,,130,-56.1061,-9.8661,4,316
121,AFN,Municipal,Jaffrey,3452,180,-72,42.8,5,67
122,AFO,Municipal,Afton,83110,210,-110.9333,42.7167,7,67
123,AFR,Afore,Afore,,150,148.3833,-9.1333,-10,804
124,AFS,Zarafshan,Zarafshan,,90,64.2328,41.6133,5,788
125,AFT,Afutara Aerodrome,Afutara,,200,160.95,-9.1833,,874
126,AFW,Fort Worth Alliance,Fort Worth,76177,50,-97.3189,32.9878,-6,67
127,AFY,Afyon,Afyon,,170,30.6,38.7333,-2,679
128,AFZ,Sabzevar,Sabzevar,,60,57.5953,36.1681,3.5,632
129,AGA,Agadir Almassira,Agadir,,50,-9.55,30.3833,,548
130,AGB,Augsburg - Muehlhausen,Munich,,0,10.8833,48.3833,1,429
131,AGC,Allegheny County,Pittsburgh,15122,190,-79.9333,40.35,5,67
132,AGD,Anggi,Anggi,,190,133.8667,-1.3833,-9,832
133,AGE,Flugplatz,Wangerooge,,120,7.9167,53.7833,-1,429
134,AGF,La Garenne,Agen,,10,0.6,44.1833,-1,427
135,AGG,Angoram,Angoram,,190,144.1,-4.0667,-10,804
136,AGH,Angelholm,Angelholm/Helsingborg,,210,12.8333,56.2833,1,484
137,AGI,Wageningen,Wageningen,,210,-56.6833,5.7667,3,379
138,AGJ,Aguni,Aguni,,150,127.1667,26.8333,-9,736
139,AGK,Kagua,Kagua,,10,143.8333,-6.3333,-10,804
140,AGL,Wanigela,Wanigela,,110,149.15,-9.3333,-10,804
141,AGM,Tasiilaq,Tasiilaq,,90,-37.6667,65.6667,3,975
142,AGN,Angoon,Angoon,99820,10,-134.5833,57.5,9,67
143,AGO,Municipal,Magnolia,71753,10,-93.2167,33.2333,6,67
144,AGP,Pablo Ruiz Picasso,Malaga,,190,-4.4992,36.675,1,482
145,AGQ,Agrinion,Agrinion,,20,21.3833,38.6,-2,433
146,AGR,Kheria,Agra,,70,77.9667,27.15,-5.5,733
147,AGS,Bush Field,Augusta,30906,0,-81.9667,33.3667,5,67
148,AGT,Alejo Garcia,Ciudad Del Este,,0,-54.8436,-25.4556,-4,365
149,AGU,Aguascalients,Aguascalientes,,40,-102.25,21.8667,6,148
150,AGV,Acarigua,Acarigua,,70,-69.2333,9.55,4,388
151,AGW,Agnew,Agnew,,210,142.15,-12.15,-10,802
152,AGX,Agatti Island,Agatti Island,,210,72.2,10.8333,5.5,733
153,AGY,Argyle Downs,Argyle Downs,,200,128.75,-16.35,-8,802
154,AGZ,Aggeneys,Aggeneys,,110,18.8139,-29.2733,2,562
155,AHA,Naha Air Force Base,Okinawa,,70,127.65,26.2,,736
156,AHB,Abha,Abha,,190,42.5,18.2167,-3,670
157,AHC,Amedee AAF,Herlong,96113,20,4.9517,60.5722,,67
158,AHD,Downtown,Ardmore,73401,170,179.9,-16.9333,6,67
159,AHE,Ahe Airport,Ahe,,10,-1.3,-14.5,,823
160,AHF,Municipal,Arapahoe,68922,150,-88.8833,15.3167,,67
161,AHH,Municipal,Amery,54001,130,-92.3667,45.2833,6,67
162,AHI,Amahai,Amahai,,20,128.9167,-3.3333,-9,832
163,AHL,Aishalton,Aishalton,,80,-59.3167,2.4833,3,350
164,AHN,Athens,Athens,30605,200,-83.3333,33.95,5,67
165,AHO,Fertilia,Alghero,,150,8.2833,40.6333,-1,450
166,AHS,Ahuas,Ahuas,,190,-84.425,15.4417,6,131
167,AHT,Amchitka,Amchitka,,180,179,51.5,10,67
168,AHU,Charif Al Idrissi,Al Hoceima,,40,-3.8333,35.1833,,548
169,AHY,Ambatolahy,Ambatolahy,,60,45.5333,-20.0167,-3,541
170,AHZ,Alpe D Huez,Alpe D Huez,,180,6.0833,45.0833,-1,427
171,AIA,Alliance,Alliance,69301,120,-102.8,42.0667,7,67
172,AIB,Anita Bay,Anita Bay,,40,-132.3833,56.2333,9,67
173,AIC,Airok,"Airok, Ailinglaplap",,200,171.2333,7.1,12,844
174,AID,Municipal,Anderson,46017,150,34.8667,32.4,,67
175,AIE,Aiome,Aiome,,120,144.7333,-5.1333,-10,804
176,AIF,Assis,Assis,,0,-50.4167,22.6667,3,316
177,AIG,Yalinga,Yalinga,,170,23.25,6.5167,-1,509
178,AIH,Aiambak,Aiambak,,150,141.2667,-7.35,,804
179,AII,Alisabieh,Alisabieh,,50,42.7167,11.15,-3,525
180,AIK,Municipal,Aiken,,180,-81.6833,33.65,5,67
181,AIL,Ailigandi,Ailigandi,,90,-78.0167,9.2333,5,162
182,AIM,Ailuk Island,Ailuk Island,,0,169.9833,10.2,-12,844
183,AIN,Wainwright,Wainwright,99782,120,-160.0333,70.6333,9,67
184,AIO,Municipal,Atlantic,50022,70,-95.0167,41.4,6,67
185,AIP,Ailinglapalap Island,Ailinglapalap Island,,200,168.8167,7.2667,-12,844
186,AIR,Aripuana,Aripuana,,70,-59.4575,-10.1864,,316
187,AIS,Arorae Island,Arorae Island,,120,176.8167,-2.6333,-12,824
188,AIT,Aitutaki,Aitutaki,,0,-159.75,-18.85,10,813
189,AIU,Atiu Island,Atiu Island,,60,-158.1,-20.0333,10,813
190,AIV,George Downer,Aliceville,35442,40,-88.1978,33.1064,-6,67
191,AIW,Ai-ais,Ai-ais,,130,17.5831,-27.9833,1,575
192,AIY,Bader Field,Atlantic City,8401,90,-74.45,39.3667,-5,67
193,AIZ,Lee C Fine Memorial,Kaiser/Lake Ozark,65017,170,-92.55,38.1,6,67
194,AJA,Campo Dell Oro,Ajaccio,,70,8.8,41.9167,-1,427
195,AJF,Jouf,Sakaka Al Jouf,,170,40.2,29.9333,-3,670
196,AJJ,Akjoujt,Akjoujt,,170,-14.3833,19.7333,,545
197,AJK,Araak,Araak,,200,49.8331,34.1331,3.5,632
198,AJL,Aizawl,Aizawl,,100,92.7167,23.7333,-5.5,733
199,AJN,Ouani,Anjouan,,80,44.4333,-12.1333,-3,513
200,AJO,Aljouf,Aljouf,,120,44.25,15.7167,-3,694
201,AJR,Arvidsjaur,Arvidsjaur,,20,19.2856,65.5914,1,484
202,AJS,Abreojos,Abreojos,,70,-113.5833,26.7333,7,148
203,AJU,Santa Maria,Aracaju,,10,-37.0678,-10.9836,3,316
204,AJY,Agades,Agades,,160,7.9833,16.9667,-1,554
205,AKA,Ankang,Ankang,,0,109.0083,32.5,-8,713
206,AKB,Atka,Atka,99547,160,-174.2,52.2,10,67
207,AKC,Fulton International,Akron/Canton,,120,23.75,-26.8,,67
208,AKD,Akola,Akola,,40,77.0586,20.6989,5.5,733
209,AKE,Akieni,Akieni,,50,13.9167,-1.1722,-1,526
210,AKF,Kufrah,Kufrah,,170,23.3167,24.2,-2,538
211,AKG,Anguganak,Anguganak,,200,142.25,-3.5833,-10,804
212,AKH,Prince Sultan Air Base,Al Kharj,,90,47.5806,24.0628,3,670
213,AKI,Akiak,Akiak,99552,140,-161.2333,60.9,9,67
214,AKJ,Asahikawa,Asahikawa,,190,142.5083,43.5,-9,736
215,AKK,Akhiok SPB,Akhiok,,100,-154.1667,56.95,9,67
216,AKL,Auckland International,Auckland,,90,174.7917,-37.0081,12,851
217,AKM,Zakouma,Zakouma,,180,19.8167,10.8833,-1,511
218,AKN,King Salmon,King Salmon,99613,50,-156.6333,58.5167,9,67
219,AKO,Colorado Plains Regional Airport,Akron,80720,10,-103.2219,40.1756,-7,67
220,AKP,Anaktuvuk,Anaktuvuk,,190,-151.7333,68.1333,9,67
221,AKQ,Gunung Batin,Astraksetra,,190,105.2333,-4.6167,-7,832
222,AKR,Akure,Akure,,180,5.2,7.25,-1,555
223,AKT,Raf Akrotiri,Akrotiri,,130,32.9878,34.5903,2,611
224,AKU,Aksu,Aksu,,80,75.6667,38.6667,-8,713
225,AKV,Akulivik,Akulivik,,90,-78.5833,60.7333,5,906
226,AKW,Aghajari,Aghajari,,210,46.6167,36.5833,,632
227,AKX,Aktyubinsk,Aktyubinsk,,160,57.2167,50.25,2,738
228,AKY,Civil,Sittwe,,60,92.8667,20.1167,-6.5,706
229,ALA,Almaty,Almaty,,30,77.0403,43.3519,6,738
230,ALB,Albany International,Albany,12110,200,-73.8,42.7333,5,67
231,ALC,Alicante El Altet,Alicante,,170,-0.5581,38.2822,1,482
232,ALD,Alerta,Alerta,,10,-69.35,-11.7,5,368
233,ALE,Alpine,Alpine,83128,10,-103.6833,30.3861,6,67
234,ALF,Alta,Alta,,200,23.3667,69.9833,-1,465
235,ALG,Houari Boumediene,Algiers,,130,3.05,36.7833,-1,500
236,ALH,Albany,Albany,,180,117.8,-34.95,-8,802
237,ALI,International,Alice,78332,120,-98.0167,27.7333,6,67
238,ALJ,Kortdoorn,Alexander Bay,,10,16.5333,-28.6167,-2,562
239,ALK,Asela,Asela,,210,39.1167,7.9667,-3,522
240,ALL,Albenga,Albenga,,120,8.1167,44.0333,-1,450
241,ALM,Municipal,Alamogordo,88310,130,-106,32.8333,7,67
242,ALN,Alton,Alton,62010,210,-90.1722,38.8917,6,67
243,ALO,Waterloo,Waterloo,50703,110,-92.3833,42.55,6,67
244,ALP,Nejrab,Aleppo,,110,37.2333,36.1833,-2,676
245,ALQ,Federal,Alegrete,,210,-55.7333,-29.8,3,316
246,ALR,Alexandra,Alexandra,,10,169.3667,-45.2167,-12,851
247,ALS,Municipal,Alamosa,,170,-105.8667,37.4333,7,67
248,ALT,Alenquer,Alenquer,,80,-54.7472,-1.9389,3,316
249,ALU,Alula,Alula,,70,50.6667,11.8833,-3,573
250,ALW,Walla Walla,Walla Walla,99362,100,-118.3,46.1,8,67
251,ALX,Thomas C Russell Fld,Alexander City,35010,160,-85.9631,32.9147,-6,67
252,ALY,El Nohza,Alexandria,,100,29.95,31.1833,-2,591
253,ALZ,Alitak SPB,Alitak,,30,-154.2458,56.8958,9,67
254,AMA,Rick Husband Amarillo International,Amarillo,79111,200,-101.7058,35.2264,-6,67
255,AMB,Ambilobe,Ambilobe,,60,48.9833,-13.1833,-3,541
256,AMC,Am Timan,Am Timan,,110,20.2667,11.0333,1,511
257,AMD,Ahmedabad,Ahmedabad,,90,72.6347,23.0772,5.5,733
258,AME,Alto Molocue,Alto Molocue,,70,37.6833,-15.65,-2,550
259,AMF,Ama,Ama,,120,141.6667,-4.1667,-10,804
260,AMG,Amboin,Amboin,,190,143.5,-4.6,-10,804
261,AMH,Arba Mintch,Arba Mintch,,90,37.5083,6,-3,522
262,AMI,Selaparang,Mataram,,60,116.1,-8.5667,-8,832
263,AMJ,Almenara,Almenara,,170,-40.6833,-16.1833,3,316
264,AMK,Animas Airpark,Durango,,20,-87.85,14.4667,,67
265,AML,Puerto Armuellas,Puerto Armuellas,,180,-82.8667,8.3,5,162
266,AMM,Queen Alia Intl,Amman,,90,35.9833,31.9667,-2,639
267,AMN,Gratiot Community,Alma,48847,30,-84.65,43.3833,5,67
268,AMO,Mao,Mao,,180,15.3167,14.1167,-1,511
269,AMP,Ampanihy,Ampanihy,,100,44.7333,-24.7,-3,541
270,AMQ,Pattimura,Ambon,,160,128.0833,-3.7,-9,832
271,AMR,Arno,Arno,,140,171.6833,7.0833,-12,844
272,AMS,Schiphol,Amsterdam,,120,4.7639,52.3086,1,461
273,AMT,Amata,Amata,,120,131.1167,-26.2,-9.5,802
274,AMU,Amanab,Amanab,,30,141.25,-3.5167,-10,804
275,AMV,Amderma,Amderma,,40,61.55,69.7667,-2,770
276,AMW,Ames,Ames,50010,70,-93.6167,42,6,67
277,AMX,Ammaroo,Ammaroo,,160,135.24,-21.74,-9.5,802
278,AMY,Ambatomainty,Ambatomainty,,70,45.6667,-17.6833,-3,541
279,AMZ,Ardmore,Ardmore,,100,174.9733,-37.0297,12,851
280,ANA,Orange County Steel Salvage Heliport,Anaheim,92806,120,-117.8503,33.8483,,67
281,ANB,Anniston Metropolitan,Anniston,36203,180,-85.8581,33.5881,-6,67
282,ANC,Ted Stevens Anchorage International Airport,Anchorage,99502,60,-149.9964,61.1744,-9,67
283,AND,Anderson,Anderson,29626,160,-82.7167,34.5,5,67
284,ANE,Marce,Angers,,10,-0.3122,47.5603,1,427
285,ANF,Cerro Moreno,Antofagasta,,200,-70.4428,-23.4394,4,324
286,ANG,Brie-Champniers,Angouleme,,30,0.2,45.6667,-1,427
287,ANH,Anuha Island Resort,Anuha Island Resort,,10,160.5,-8.9833,-11,874
288,ANI,Aniak,Aniak,,190,-159.5333,61.5833,9,67
289,ANJ,Zanaga,Zanaga,,50,13.8333,-2.85,-1,515
290,ANK,Etimesgut,Ankara,,130,32.6831,39.9494,-2,679
291,ANL,Andulo,Andulo,,120,16.75,-11.5,-1,502
292,ANM,Antsirabato,Antalaha,,50,50.3333,-15,-3,541
293,ANN,Annette Island,Annette Island,99926,30,-131.5667,55.0333,9,67
294,ANO,Angoche,Angoche,,30,39.9333,-16.1667,-2,550
295,ANP,Lee,Annapolis,21037,170,-76.5,38.9833,5,67
296,ANQ,Tri-State Steuben Cty,Angola,46703,60,-85,41.6333,5,67
297,ANR,Deurne/ Antwerp Airport,Antwerp,,60,4.4603,51.1894,1,409
298,ANS,Andahuaylas,Andahuaylas,,190,-73.4167,-13.65,5,368
299,ANU,V. C. Bird Intl,St. John's,,60,-61.7928,17.1367,-4,206
300,ANV,Anvik,Anvik,99558,190,-160.2167,62.65,9,67
301,ANW,Ainsworth,Ainsworth,,100,-99.9833,42.5833,6,67
302,ANX,Andenes,Andenes,,20,16.1167,69.3167,-1,465
303,ANY,Anthony,Anthony,67003,70,-98.0333,37.15,6,67
304,ANZ,Angus Downs,Angus Downs,,20,132.1667,-25.0833,-9.5,802
305,AOA,Aroa,Aroa,,90,146.75,-9.0333,-10,804
306,AOB,Annanberg,Annanberg,,0,144.6667,-4.9167,-10,804
307,AOC,Altenburg Nobitz,Altenburg,,180,12.5083,50.9833,1,429
308,AOD,Abou Deia,Abou Deia,,10,19.2833,11.4667,-1,511
309,AOE,Anadolu University,Eskisehir,,110,30.5286,39.8117,,679
310,AOG,Anshan,Anshan,,100,123.0333,41.1667,8,713
311,AOH,Allen County,Lima,45804,210,-84.0333,40.7167,5,67
312,AOI,Falconara,Ancona,,50,13.5,43.6333,-1,450
313,AOJ,Aomori,Aomori,,20,140.7,40.7333,-9,736
314,AOK,Karpathos,Karpathos,,120,27.2333,35.5,-2,433
315,AOL,Paso De Los Libres,Paso De Los Libres,,0,-57.15,-29.6833,3,303
316,AON,Arona,Arona,,150,145.9667,-6.25,-10,804
317,AOO,Martinsburg,Martinsburg,,150,-78.3167,40.3,5,67
318,AOR,Alor Setar,Alor Setar,,0,100.3981,6.1897,8,749
319,AOS,Amook,Amook,,90,-153.8333,57.4667,9,67
320,AOU,Attopeu,Attopeu,,20,106.8167,14.8,-7,744
321,APA,Arapahoe Co,Denver,80112,60,-104.8333,39.5667,7,67
322,APB,Apolo,Apolo,,170,-68.5,-14.7167,4,312
323,APC,Napa County,Napa,94558,150,-122.2167,38.45,8,67
324,APE,San Juan Aposento,San Juan Aposento,,0,-75.1667,-15.35,5,368
325,APF,Naples,Naples,34104,20,-81.7667,26.15,5,67
326,APG,Phillips AAF,Aberdeen,21005,70,-1.2833,52.3167,,67
327,APH,Camp A P Hill,Bowling Green,22427,150,-77.35,38.05,5,67
328,API,Apiay,Apiay,,20,-73.0519,4.0689,5,327
329,APK,Apataki,Apataki,,40,-145.3333,-15.0833,10,823
330,APL,Nampula,Nampula,,10,39.2833,-15.1,-2,550
331,APN,Alpena County Regional,Alpena,49707,60,-83.55,45.0833,5,67
332,APO,Apartado,Apartado,,120,-77.2,7.0333,5,327
333,APP,Asapa,Asapa,,100,148.1333,-8.9833,-10,804
334,APQ,Arapiraca,Arapiraca,,150,-36.65,-9.75,3,316
335,APR,April River,April River,,160,142.4333,-4.3,-10,804
336,APS,Anapolis,Anapolis,,210,-48.9269,-16.3622,-3,316
337,APT,Marion County,Jasper,37347,130,-85.6333,35.0667,6,67
338,APU,Apucarana,Apucarana,,80,-51.4833,-23.55,3,316
339,APV,Apple Valley,Apple Valley,92307,210,-117.1861,34.5753,-8,67
340,APW,Faleolo,Apia,,130,-172,-13.8333,-11,892
341,APX,Arapongas,Arapongas,,80,-51.95,-23.3833,3,316
342,APY,Alto Parnaiba,Alto Parnaiba,,130,-45.9667,-9.1,3,316
343,APZ,Zapala,Zapala,,70,-70.0833,-38.9167,3,303
344,AQA,Araraquara,Araraquara,,0,-48.1331,-21.8119,-3,316
345,AQB,Quiche Airport,Quiche,,120,-89.8,15.3667,,127
346,AQG,Anqing,Anqing,,180,117.0333,30.5167,-8,713
347,AQI,Qaisumah,Qaisumah,,200,46.1167,28.3167,-3,670
348,AQJ,King Hussein Intl,Aqaba,,200,34.6667,29,-2,639
349,AQM,Ariquemes,Ariquemes,,130,-63.0667,-9.9333,4,316
,AQP,Rodriguez Ballon,Arequipa,,20,-71.5831,-16.3411,-5,368
,AQS,Saqani,Saqani,,0,179.35,-16.75,-12,821
,AQY,Alyeska,Alyeska,,130,-149.1167,60.9667,9,67
,ARA,Acadiana Regional,New Iberia,70560,100,32.5833,80.1333,,67
,ARB,Municipal,Ann Arbor,48108,80,-83.7456,42.2231,-5,67
,ARC,Arctic Village,Arctic Village,99722,130,-145.5833,68.1167,9,67
,ARD,Alor Island,Alor Island,,40,124.75,-8.25,-8,832
,ARE,Arecibo,Arecibo,,160,-66.6667,18.45,4,3
,ARF,Acaricuara,Acaricuara,,130,-70.1333,0.5333,5,327
,ARG,Walnut Ridge,Walnut Ridge,72476,0,-90.9167,36.1167,6,67
,ARH,Arkhangelsk,Arkhangelsk,,100,40.5333,64.5667,-2,770
,ARI,Chacalluta,Arica,,180,-70.3167,-18.5,4,324
,ARJ,Arso,Arso,,70,140.7833,-2.9333,-9,832
,ARK,Arusha,Arusha,,10,36.6333,-3.3678,3,585
,ARL,Arly,Arly,,40,1.25,11.5833,,593
,ARM,Armidale,Armidale,,190,151.6167,-30.5333,-10,802
,ARN,Arlanda,Stockholm,,180,17.9186,59.6519,1,484
,ARO,Arboletas,Arboletas,,210,-76.4333,8.8667,5,327
,ARP,Aragip,Aragip,,10,149.4667,-9.9,-10,804
,ARQ,Arauquita,Arauquita,,150,-71.4403,7.0361,5,327
,ARR,Alto Rio Senguerr,Alto Rio Senguerr,,190,-71,-45.1667,3,303
,ARS,Aragarcas,Aragarcas,,100,-52.0956,-15.8967,3,316
,ART,Watertown,Watertown,13634,140,-76.0167,43.9833,5,67
,ARU,Aracatuba,Aracatuba,,60,-50.4167,-21.1833,3,316
,ARV,Noble F. Lee,Minocqua,54568,40,-89.7333,45.9167,6,67
,ARW,Arad,Arad,,10,21.25,46.1667,-2,473
,ARX,Asbury Park,Neptune,,40,-74.09,40.2194,5,67
,ARY,Ararat,Ararat,,160,142.9886,-37.3094,10,802
,ASA,Assab International,Assab,,160,42.645,13.0717,3,522
,ASB,Ashgabat,Ashgabat,,200,58.3833,37.95,-2,785
,ASC,Ascension,Ascension,,50,-63.0667,-15.7167,4,312
,ASD,Andros Town,Andros Town,,60,-77.7939,24.6975,5,204
,ASE,Aspen,Aspen,81611,180,-106.8689,39.2231,-7,67
,ASF,Astrakhan,Astrakhan,,70,48.05,46.35,2,770
,ASG,Ashburton,Ashburton,,20,171.7833,-43.9,-12,851
,ASH,Boire Field,Nashua,3063,120,-71.5147,42.7817,-5,67
,ASI,Wideawake Field,"Georgetown, Ascension Island",,90,-14.3936,-7.9697,,580
,ASJ,Amami O Shima,Amami O Shima,,80,129.7,28.4167,-9,736
,ASK,Yamoussoukro,Yamoussoukro,,190,-5.3667,6.9,,533
,ASM,Yohannes IV,Asmara,,100,38.9106,15.2919,3,523
,ASN,Talladega,Talladega,35096,140,-0.6833,38.6,,67
,ASO,Asosa,Asosa,,130,34.55,10.0667,-3,522
,ASP,Alice Springs,Alice Springs,,190,133.8833,-23.8,-9.5,802
,ASQ,Austin,Austin,78719,60,-117.0667,39.5,8,67
,ASR,Erkilet International Airport,Kayseri,,50,35.5,38.7,-2,679
,AST,Astoria,Astoria,97146,30,-123.8833,46.1667,8,67
,ASU,Silvio Pettirossi,Asuncion,,80,-57.6667,-25.2667,4,365
,ASV,Amboseli,Amboseli,,10,37.25,-2.6333,-3,535
,ASW,Aswan,Aswan,,20,32.82,23.9644,2,591
,ASX,Ashland,Ashland,4732,160,-90.9189,46.5486,-6,67
,ASY,Ashley,Ashley,58413,190,-99.3667,46.0333,6,67
,ATA,Anta,Anta,,20,-72.1333,-13.4833,5,368
,ATB,Atbara,Atbara,,140,33.9833,17.7,-2,583
,ATD,Atoifi,Atoifi,,140,161.0333,-8.8667,-11,874
,ATE,Antlers,Antlers,74523,200,-95.6167,34.2333,6,67
,ATF,Chachoan,Ambato,,190,-78.5667,-1.2,5,337
,ATG,Attock,Attock,,140,72.2414,33.8742,,764
,ATH,Eleftherios Venizelos,Athens,,50,23.9444,37.9364,2,433
,ATI,Artigas,Artigas,,130,-56.5167,-30.4167,3,385
,ATJ,Antsirabe,Antsirabe,,210,47.0667,-19.0833,-3,541
,ATK,Atqasuk,Atqasuk,99791,170,-157.3333,70.4667,9,67
,ATL,Hartsfield-jackson Atlanta International,Atlanta,30337,30,-84.4281,33.6367,-5,67
,ATM,Altamira,Altamira,,80,-52.2539,-3.2539,-4,316
,ATN,Namatanai,Namatanai,,100,152.45,-3.6667,-10,804
,ATO,Ohio University,Athens,45710,50,-82.1,39.3333,5,67
,ATP,Airstrip,Aitape,,210,142.35,-3.1333,-10,804
,ATQ,Raja Sansi,Amritsar,,150,74.7972,31.7097,5.5,733
,ATR,Mouakchott,Atar,,130,-13.05,20.5,,545
,ATS,Artesia,Artesia,88210,40,-104.4667,32.85,7,67
,ATT,Atmautluak,Atmautluak,99559,160,-162.75,61,9,67
,ATU,Casco Cove,Attu Island,,60,173.1833,52.8333,10,67
,ATV,Ati,Ati,,20,18.3167,13.2333,-1,511
,ATW,Outagamie County,Appleton,54914,90,-88.5167,44.2667,6,67
,ATX,Atbasar,Atbasar,,190,68.4,51.8833,-2,738
,ATY,Watertown,Watertown,13634,200,-97.15,44.9167,6,67
,ATZ,Assiut,Assiut,,180,31.0167,27.05,-2,591
,AUA,Reina Beatrix,Aruba,,0,-70.0167,12.5,4,277
,AUB,Itauba,Itauba,,140,-41.9833,-7.1,,316
,AUC,Arauca,Arauca,,20,-70.7333,7.0667,5,327
,AUD,Augustus Downs,Augustus Downs,,20,139.9333,-18.6667,-10,802
,AUE,Abu Rudeis,Abu Rudeis,,20,33.1833,28.9667,-2,591
,AUF,Auxerre Branches,Auxerre,,200,3.4967,47.8464,1,427
,AUG,Augusta,Augusta,30906,120,-69.8,44.3167,5,67
,AUH,Abu Dhabi International,Abu Dhabi,,90,54.6511,24.4331,4,678
,AUI,Aua Island,Aua Island,,0,143.0667,-1.45,-10,804
,AUJ,Ambunti,Ambunti,,80,142.85,-4.25,-10,804
,AUK,Alakanuk,Alakanuk,,110,-164.6333,62.6833,9,67
,AUL,Aur Island,Aur Island,,90,171.1667,8.1333,-12,844
,AUM,Austin,Austin,78719,10,-92.9333,43.6667,6,67
,AUN,Auburn,Auburn,44023,10,-121.0667,38.9,8,67
,AUO,Auburn-Opelika,Auburn,36830,110,-85.4333,32.6167,6,67
,AUP,Agaun,Agaun,,100,149.3333,-9.9167,-10,804
,AUQ,Atuona,Atuona,,180,-139.0333,-9.8,9.5,823
,AUR,Aurillac,Aurillac,,150,-2.4167,44.8917,-1,427
,AUS,Austin-bergstrom International,Austin,78719,200,-97.67,30.1944,-6,67
,AUT,Atauro,Atauro,,130,125.675,-8,-8,832
,AUU,Aurukun Mission,Aurukun Mission,,20,141.7208,-13.3539,10,802
,AUV,Aumo,Aumo,,180,148.5,-5.7333,,804
,AUW,Municipal,Wausau,54403,90,-89.6806,44.7667,6,67
,AUX,Araguaina,Araguaina,,200,-48.2,-7.2,3,316
,AUY,Aneityum,Aneityum,,210,169.6667,-20.3333,-11,885
,AUZ,Municipal Airport,Aurora,80239,0,-88.3167,41.7667,6,67
,AVA,An Shun/Huang Guo Shu,An Shun,,70,120.95,33.2167,,713
,AVB,Aviano,Aviano,,80,12.6,46.0667,-1,450
,AVF,Avoriaz,Avoriaz,,180,6.7667,46.2,,427
,AVG,Auvergne,Auvergne,,210,129.9167,-15.75,-9.5,802
,AVI,Maximo Gomez,Ciego De Avila,,210,-78.7914,22.025,5,219
,AVK,Arvaikheer,Arvaikheer,,90,102.7833,46.2667,-8,751
,AVL,Asheville Regional Airport,Fletcher,28732,170,-82.5417,35.4361,-5,67
,AVN,Avignon-Caumont,Avignon,,0,4.9019,43.9067,1,427
,AVO,Municipal,Avon Park,33825,130,-81.5167,27.6,5,67
,AVP,Wilkes-Barre/Scranton International Airport,"Wilkes-Barre/Scranton, PA",18641,70,-75.7233,41.3383,5,67
,AVU,Avu Avu,Avu Avu,,30,160.4167,-9.85,-11,874
,AVV,Avalon,Geelong,,130,144.4667,-38.0333,-10,802
,AVX,Avalon Bay,Catalina Island,,70,-118.35,33.3333,-8,67
,AWA,Awassa,Awassa,,70,38.4028,6.9667,-3,522
,AWB,Awaba,Awaba,,40,142.75,-8.0167,-10,804
,AWD,Aniwa,Aniwa,,160,169.5833,-19.2833,-11,885
,AWE,Alowe,Alowe,,80,9.45,-0.75,-1,526
,AWH,Awareh,Awareh,,180,44.1833,8.2667,-3,522
,AWK,Wake Island,Wake Island,,160,166.65,19.2833,-12,5
,AWM,Municipal,West Memphis,72301,180,-90.1833,35.1333,6,67
,AWN,Alton Downs,Alton Downs,,180,139.3167,-26.4833,-9.5,802
,AWP,Austral Downs,Austral Downs,,180,137.25,-20.3333,-10,802
,AWR,Awar,Awar,,160,144.85,-4.1167,-10,804
,AWZ,Ahwaz,Ahwaz,,110,48.6667,31.2167,-3.5,632
,AXA,Wallblake,Anguilla,,210,-63.055,18.2047,-4,202
,AXB,Alexandria Bay,Alexandria Bay,13656,70,-75.9014,44.2525,5,67
,AXC,Aramac,Aramac,,80,145.25,-23.0833,-10,802
,AXD,Dimokritos,Alexandroupolis,,160,25.9511,40.8511,2,433
,AXE,Xanxere,Xanxere,,90,-52.3833,-26.8833,,316
,AXG,Algona,Algona,50511,190,-94.2333,43.0667,6,67
,AXK,Ataq,Ataq,,190,46.8167,14.5333,-3,694
,AXL,Alexandria,Alexandria,,40,136.7133,-19.0617,9.5,802
,AXM,El Eden,Armenia,,170,-75.6667,4.5167,5,327
,AXN,Alexandria,Alexandria,,50,-95.2667,45.7833,6,67
,AXP,Springpoint Arpt,Spring Point,,180,-73.9667,22.45,5,204
,AXR,Arutua,Arutua,,10,-146.6667,-15.35,10,823
,AXS,Municipal,Altus,73521,50,-99.3333,34.7028,6,67
,AXT,Akita,Akita,,180,140.2186,39.6156,-9,736
,AXU,Axum,Axum,,100,38.7125,14.1208,-3,522
,AXV,Neil Armstrong,Wapakoneta,45871,170,-84.1833,40.5667,5,67
,AXX,Angel Fire,Angel Fire,87710,40,-105.2833,36.4167,7,67
,AYA,Ayapel,Ayapel,,180,-75.15,8.3,5,327
,AYC,Ayacucho,Ayacucho,,200,-73.6167,8.6,5,327
,AYD,Alroy Downs,Alroy Downs,,160,135.95,-19.3,-9.5,802
,AYE,AAF Heliport,Fort Devens,,60,-72.5,19.8333,,67
,AYG,Yaguara,Yaguara,,30,-73.9333,1.5442,-5,327
,AYH,RAF Station,Alconbury,,110,-0.2667,52.3667,,493
,AYI,Yari,Yari,,130,-72.2667,-0.3833,5,327
,AYK,Arkalyk,Arkalyk,,150,66.9667,50.3167,-2,738
,AYL,Anthony Lagoon,Anthony Lagoon,,80,135.55,-18.0167,-9.5,802
,AYN,Anyang,Anyang,,90,114.35,36.1,8,713
,AYO,Ayolas,Ayolas,,100,33.75,2.05,,365
,AYP,Yanamilla,Ayacucho,,100,-74.2472,-13.1972,5,368
,AYQ,Connellan,Ayers Rock,,110,131.0333,-25.3333,9.5,802
,AYR,Ayr,Ayr,,180,147.3667,-19.6667,-10,802
,AYS,Ware County,Waycross,31503,200,-82.4,31.25,5,67
,AYT,Antalya,Antalya,,180,30.8,36.9167,2,679
,AYU,Aiyura,Aiyura,,70,145.9,-6.3333,-10,804
,AYW,Ayawasi,Ayawasi,,130,132.5,-1.2,-9,832
,AYZ,Zahns,Amityville,11701,160,-73.4167,40.6667,5,67
,AZB,Amazon Bay,Amazon Bay,,190,149.3333,-10.3,-10,804
,AZD,Yazd,Yazd,,130,54.2833,31.9,-3.5,632
,AZG,Apatzingan,Apatzingan,,100,-102.3833,19.0833,6,148
,AZI,Bateen,Abu Dhabi,,50,54.4581,24.4283,,678
,AZN,Andizhan,Andizhan,,140,72.3,40.7333,-2,788
,AZO,Kalamazoo/Battle Creek Intl,Kalamazoo,49002,210,-85.5519,42.235,-5,67
,AZP,Atizapan,Mexico City,,140,-99.1167,19.35,,148
,AZR,Adrar,Adrar,,50,-0.2833,27.8833,-1,500
,AZT,Zapatoca,Zapatoca,,20,-73.2833,6.8167,5,327
,AZZ,Ambriz,Ambriz,,170,13.15,-7.8833,-1,502
,BAA,Bialla,Bialla,,70,151.0333,-5.3167,-10,804
,BAC,Barranca De Upia,Barranca De Upia,,0,-72.9667,4.5833,5,327
,BAE,Barcelonnette,Barcelonnette,,90,6.6103,44.3883,-1,427
,BAG,Loakan,Baguio,,200,120.6167,16.3667,-8,766
,BAH,Bahrain International,Manama,,30,50.5,26,3,605
,BAI,Buenos Aires,Buenos Aires,,50,-83.33,9.1636,-6,110
,BAJ,Bali,Bali,,40,149.1333,-4.8833,-10,804
,BAL,Batman,Batman,,120,41.1167,37.8667,-2,679
,BAM,Lander County,Battle Mountain,89820,150,-116.9333,40.6333,8,67
,BAN,Basongo,Basongo,,200,20.3333,-4.1667,-2,517
,BAO,Udorn,Ban Mak Khaen,,60,102.7833,17.3833,-7,782
,BAP,Baibara,Baibara,,150,149.6333,-10.3333,-10,804
,BAQ,E Cortissoz,Barranquilla,,140,-74.7833,10.8833,5,575
,BAR,Baker Aaf,Baker Island,,100,-176.5167,0.2167,,67
,BAS,Balalae,Balalae,,0,155.9,-7.9833,-11,874
,BAT,Airport Chafei Amsei,Barretos,,190,-48.5853,-20.5836,3,316
,BAU,Bauru,Bauru,,0,-49.05,-22.3333,3,316
,BAV,Baotou,Baotou,,170,109.9969,40.56,-8,713
,BAW,Biawonque,Biawonque,,140,9.45,-0.6667,-1,526
,BAX,Barnaul,Barnaul,,120,83.5386,53.3639,6,770
,BAY,Baia Mare,Baia Mare,,150,23.5167,47.6333,-2,473
,BAZ,Barbelos,Barbelos,,80,-62.9336,-0.9669,4,316
,BBA,Teniente Vidal,Balmaceda,,80,-71.7,-45.9167,4,324
,BBB,Municipal,Benson,85602,120,-95.6,45.3167,6,67
,BBC,Bay City,Bay City,77414,120,-95.9667,28.9833,6,67
,BBD,Curtis Field,Brady,76825,50,-99.3333,31.1333,6,67
,BBE,Big Bell,Big Bell,,140,117.6667,-27.4167,-8,802
,BBF,Burlington,Burlington,5403,200,-71.1833,42.5,5,67
,BBG,Butaritari,Butaritari,,50,172.8167,3.0833,-12,824
,BBH,Barth,Barth,,200,12.7117,54.3397,-1,429
,BBI,Bhubaneswar,Bhubaneswar,,60,85.8178,20.2444,5.5,733
,BBJ,Bitburg Air Base,Bitburg,,10,6.55,49.95,,429
,BBK,Kasane,Kasane,,30,25.1625,-17.8328,2,510
,BBL,Babolsar,Babolsar,,70,52.6667,36.65,-3.5,632
,BBM,Battambang,Battambang,,50,103.2167,13.0833,-7,709
,BBN,Bario,Bario,,150,115.4783,3.7347,-8,749
,BBO,Berbera,Berbera,,170,45.0167,10.4167,-3,573
,BBP,Bembridge,Bembridge,,120,-1.0833,50.6833,,493
,BBQ,Barbuda,Barbuda,,160,-61.7833,17.6,4,206
,BBR,Baillif,Basse Terre,,90,-61.75,16.1667,4,235
,BBS,Blackbushe,Yateley,,80,-0.8444,51.3306,,493
,BBT,Berberati,Berberati,,90,15.7833,4.2167,-1,509
,BBU,Baneasa,Bucharest,,20,26.0861,44.5028,2,473
,BBV,Hkg,Bereby,,0,-6.9167,4.6333,,533
,BBW,Broken Bow,Broken Bow,74728,70,-99.6333,41.4,6,67
,BBX,Wings Field,Blue Bell,19422,30,-75.2667,40.15,5,67
,BBY,Bambari,Bambari,,190,20.6333,5.85,-1,509
,BBZ,Zambezi,Zambezi,,200,23.1167,-13.5333,-2,597
,BCA,Baracoa,Baracoa,,100,-74.35,20.25,5,219
,BCB,Virginia Tech,Blacksburg,24060,80,-80.4167,37.2333,5,67
,BCC,Bear Creek,Bear Creek,,200,-155.8672,57.6175,9,67
,BCD,Bacolod,Bacolod,,0,122.9333,10.6333,-8,766
,BCE,Bryce,Bryce,,20,-112.15,37.7,7,67
,BCF,Bouca,Bouca,,40,18.2833,6.5,-1,509
,BCG,Bemichi,Bemichi,,170,-59.1667,7.7,3,350
,BCH,Cakung International,Baucau,,110,126.3994,-8.4856,9,862
,BCI,Barcaldine,Barcaldine,,50,145.3333,-23.6667,-10,802
,BCJ,Baca Grande,Baca Grande,,80,-105.7667,37.9667,7,67
,BCK,Bolwarra,Bolwarra,,160,144.1667,-17.4,-10,802
,BCL,Barra Colorado,Barra Colorado,,90,-83.5833,10.7833,6,110
,BCM,Bacau,Bacau,,20,26.8833,46.6,-2,473
,BCN,El Prat De Llobregat,Barcelona,,40,2.0833,41.3,1,482
,BCO,Jinka,Jinka,,90,36.55,5.7833,-3,522
,BCP,Bambu,Bambu,,70,35.2833,5.8667,,804
,BCQ,Brack,Brack,,60,17.4667,-22.7833,,538
,BCR,Boca Do Acre,Boca Do Acre,,90,-67.4167,-8.6333,4,316
,BCS,Southern Seaplane,Belle Chasse,70037,10,-90.2333,30.05,6,67
,BCT,Public,Boca Raton,33431,160,-80.1167,26.3667,5,67
,BCU,Bauchi,Bauchi,,30,9.8333,10.3167,-1,555
,BCV,Belmopan,Belmopan,,70,-88.7667,17.25,,106
,BCW,Benguera Island,Benguera Island,,130,35.1167,-23.7333,,550
,BCX,Beloreck,Beloreck,,20,58.3333,53.9333,-2,770
,BCY,Bulchi,Bulchi,,80,36.6667,6.2167,-3,522
,BCZ,Bickerton Island,Bickerton Island,,50,137.8,-13.7833,-9.5,802
,BDA,Kindley Field,Bermuda,,180,-64.6786,32.3642,-4,207
,BDB,Bundaberg,Bundaberg,,60,152.3186,-24.9039,10,802
,BDC,Barra Do Corda,Barra Do Corda,,0,-45.2667,-5.4667,3,316
,BDD,Badu Island,Badu Island,,60,142.1333,-10.1167,-10,802
,BDE,Baudette,Baudette,56623,70,19.7,54.3833,,67
,BDF,Rinkenberger,Bradford,61421,30,-89.65,41.1833,6,67
,BDG,Blanding,Blanding,84511,40,-109.4833,37.5833,7,67
,BDH,Bandar Lengeh,Bandar Lengeh,,90,54.8833,26.55,-3.5,632
,BDI,Bird Island,Bird Island,,160,55.2167,-3.7167,-4,570
,BDJ,Sjamsudin Noor,Banjarmasin,,140,114.6833,-3.2833,-8,832
,BDK,Bondoukou,Bondoukou,,10,-2.8,8.0333,,533
,BDL,Bradley International,Windsor Locks,6096,0,-72.6833,41.9389,-5,67
,BDM,Bandirma,Bandirma,,130,27.9833,40.3167,-2,679
,BDN,Talhar,Badin,,130,68.8333,24.65,-5,764
,BDO,Husein Sastranegara,Bandung,,150,107.5764,-6.9006,7,832
,BDP,Bhadrapur,Bhadrapur,,130,88.0833,26.5667,-5.8,755
,BDQ,Vadodara,Vadodara,,100,73.2667,22.3167,-5.5,265
,BDR,Igor I. Sikorsky Mem.,Bridgeport,,190,-73.1333,41.1667,5,67
,BDS,Papola Casale,Brindisi,,140,17.9469,40.6575,1,450
,BDT,Gbadolite,Gbadolite,,110,20.9753,4.2533,1,517
,BDU,Bardufoss,Bardufoss,,60,18.5403,69.0558,-1,465
,BDV,Moba,Moba,,130,29.7333,-7.0833,-2,517
,BDW,Bedford Downs,Bedford Downs,,170,127.4667,-17.3,-8,802
,BDX,Broadus,Broadus,59317,40,-105.4167,45.45,7,67
,BDY,State,Bandon,97411,150,-124.4167,43.1167,8,67
,BDZ,Baindoung,Baindoung,,130,146.95,-6.3333,-10,804
,BEA,Bereina,Bereina,,210,146.4833,-8.65,-10,804
,BEB,Benbecula,Benbecula,,40,-7.3667,57.4833,,493
,BEC,Beech,Wichita,67206,130,-97.2211,37.6864,,67
,BED,Hanscom Field,Bedford/Hanscom,1730,160,-71.2833,42.4667,5,67
,BEE,Beagle Bay,Beagle Bay,,150,141.6,-12.9833,-8,802
,BEF,Bluefields,Bluefields,,120,-83.9833,12.0333,6,153
,BEG,Nikola Tesla,Belgrade,,100,20.3069,44.8192,1,497
,BEH,Ross Field,Benton Harbor,49022,160,-86.4333,42.1333,5,67
,BEI,Beica,Beica,,40,34.5333,9.3833,-3,522
,BEJ,Kalimaru,Tanjung Redep,,120,117.4322,2.1556,8,832
,BEK,Bareli,Bareli,,160,81.2333,26.2167,-5.5,733
,BEL,Val De Cans,Belem,,10,-48.4686,-1.3836,3,316
,BEM,Bossembele,Bossembele,,110,17.65,5.2667,-1,509
,BEN,Benina Intl,Benghazi,,60,20.0667,32.1167,-2,538
,BEO,Belmont,Newcastle,,100,151.6667,-33.0333,-10,802
,BEP,Bellary,Bellary,,70,76.8828,15.1628,5.5,733
,BEQ,Honington,Bury St Edmunds,,20,0.7667,52.35,,493
,BER,Berlin Metropolitan Area,Berlin,,90,13.4,52.5167,1,429
,BES,Brest Lesquin,Brest,,20,-4.4167,48.45,-1,427
,BET,Bethel Airport,Bethel,99559,70,-161.8333,60.7833,9,67
,BEU,Bedourie,Bedourie,,60,139.3667,-24.3333,-10,802
,BEV,Beer Sheba,Beer Sheba,,20,34.8,31.25,-2,636
,BEW,Beira,Beira,,100,34.9,-19.8,-2,550
,BEX,Benson (RAF Station),Benson,,40,-1.0958,51.6164,,493
,BEY,Beirut Rafic Hariri Airport,Beirut,,90,35.4883,33.8208,2,961
,BEZ,Beru,Beru,,150,176,-1.3333,-12,824
,BFA,Bahia Negra,Bahia Negra,,180,-58.2,-20.25,,365
,BFB,Blue Fox Bay,Blue Fox Bay,,200,-152.1333,58.1833,9,67
,BFC,Bloomfield,Bloomfield,,50,145.3333,-15.9,-10,802
,BFD,Bradford,Bradford,16726,0,-78.6333,41.8,5,67
,BFE,Bielefeld,Bielefeld,,150,8.5,52,1,429
,BFF,Scotts Bluff County,Scottsbluff,69361,170,-103.6,41.8667,7,67
,BFG,Bullfrog Basin,Bullfrog Basin,,20,-110.7083,37.55,7,67
,BFH,Bacacheri,Curitiba,,60,-49.2319,-25.405,-3,316
,BFI,Boeing Field/King County International Airport,Seattle,98108,70,-122.3019,47.53,-8,67
,BFJ,Ba,Ba,,30,177.6833,-17.55,-12,821
,BFK,Buffalo Municipal Airport,Buffalo,65622,90,-99.6186,36.8633,-6,67
,BFL,Meadows Field,Bakersfield,93308,210,-119.0567,35.4336,-8,67
,BFM,Mobile Downtown,Mobile,36615,10,-88.0681,30.6267,-6,67
,BFN,Bloemfontein,Bloemfontein,,0,26.3025,-29.0928,2,562
,BFO,Buffalo Range,Buffalo Range,,70,31.5833,-21.0167,-2,565
,BFP,Beaver Falls,Beaver Falls,15010,180,-80.4,40.7667,5,67
,BFQ,Bahia Pinas,Bahia Pinas,,210,-77.6833,8.8667,,162
,BFR,Virgil I Grissom Muni,Bedford,47421,60,-86.4833,38.85,5,67
,BFS,Aldergrove International Airport,Belfast,,160,-5.9167,54.5908,,493
,BFT,County,Beaufort,29907,190,-80.6333,32.4167,5,67
,BFU,Bengbu,Bengbu,,0,117.3608,32.9408,,713
,BFV,Buri Ram,Buri Ram,,170,103.2506,15.2272,,782
,BFX,Bafoussam,Bafoussam,,190,10.4,5.4833,-1,504
,BGA,Palo Negro,Bucaramanga,,90,-73.15,7.1,5,327
,BGB,Booue,Booue,,40,11.9333,-0.1,-1,526
,BGC,Braganca,Braganca,,190,-6.75,41.8167,,469
,BGD,Borger,Borger,79007,170,-101.4,35.65,6,67
,BGE,Decatur County,Bainbridge,,90,-84.6,30.9,5,67
,BGF,Bangui,Bangui,,60,18.5667,4.3833,-1,509
,BGG,Bongouanou,Bongouanou,,30,-4.2,6.65,,533
,BGH,Abbaye,Boghe,,200,-14.2,16.6333,,545
,BGI,Grantley Adams International,Bridgetown,,210,-59.4925,13.0747,-4,246
,BGJ,Borgarfjordur Eystri,Borgarfjordur Eystri,,50,-21.9833,64.4667,,439
,BGK,Big Creek,Big Creek,,180,-88.4167,16.5167,6,106
,BGL,Baglung,Baglung,,50,83.6667,28.2167,-5.8,755
,BGM,Greater Binghamton,Binghamton,13790,40,-75.9797,42.2086,-5,67
,BGN,R.A.F.,Brueggen,,80,6.1333,51.2,-1,429
,BGO,"Bergen Airport, Flesland",Bergen,,160,5.2167,60.3,1,465
,BGP,Bongo,Bongo,,170,10.2167,-2.1667,-1,526
,BGQ,Big Lake,Big Lake,99652,210,-149.8167,61.5333,9,67
,BGR,Bangor International Airport,Bangor,4401,50,-68.8167,44.8,5,67
,BGS,Webb AFB,Big Spring,,130,124.2667,-18.5167,,67
,BGT,Bagdad,Bagdad,86321,130,-113.1703,34.5931,-7,67
,BGU,Bangassou,Bangassou,,90,22.8,4.7833,-1,509
,BGV,Bento Goncalves,Bento Goncalves,,130,-51.5167,-29.1667,3,316
,BGW,Al Rasheed,Baghdad,,130,44.5,33.2833,3,634
,BGX,Airport Cmdt. Gustavo Kraemer,Bage,,110,-54.1097,-31.3908,3,316
,BGY,Orio al Serio,Bergamo,,90,9.7042,45.6739,1,450
,BGZ,Braga,Braga,,200,-8.45,41.5833,,469
,BHA,Bahia De Caraquez,Bahia De Caraquez,,190,-80.4,-0.5833,5,337
,BHB,Bar Harbor,Bar Harbor,4605,70,-68.3667,44.45,5,67
,BHC,Bhurban Heliport,Bhurban,86429,130,-114.5667,35.15,7,67
,BHD,George Best Belfast City,Belfast,,200,-5.8725,54.6181,,493
,BHE,Woodbourne Air Station,Blenheim,,110,173.8703,-41.5183,12,851
,BHF,Bahia Cupica,Bahia Cupica,,20,-77.3333,6.55,5,327
,BHG,Brus Laguna,Brus Laguna,,50,-84.8333,15.8333,6,131
,BHH,Bisha,Bisha,,20,42.65,19.9833,-3,670
,BHI,Comandante,Bahia Blanca,,180,-62.1833,-38.7167,3,303
,BHJ,Rudra Mata,Bhuj,,30,69.6703,23.2878,5.5,733
,BHK,Bukhara,Bukhara,,100,64.4833,39.7667,-2,788
,BHL,Bahia Angeles,Bahia Angeles,,130,-113.55,28.95,8,148
,BHM,Birmingham,Birmingham,35217,110,-86.75,33.5667,6,67
,BHN,Beihan,Beihan,,40,45.7333,14.7833,-3,694
,BHO,Bhopal,Bhopal,,130,77.3333,23.2833,-5.5,733
,BHP,Bhojpur,Bhojpur,,60,87.05,27.1667,-5.8,755
,BHQ,Broken Hill,Broken Hill,,200,141.4667,-32,-9.5,802
,BHR,Bharatpur Airport,Bharatpur,,30,84.4167,27.6833,5.4,755
,BHS,Raglan,Bathurst,,190,149.65,-33.4167,-10,802
,BHT,Brighton Downs,Brighton Downs,,60,141.6333,-23.5,-10,802
,BHU,Bhavnagar,Bhavnagar,,90,72.1833,21.75,-5.5,733
,BHV,Bahawalpur,Bahawalpur,,140,71.6833,29.4,-5,764
,BHW,Bhagatanwala Apt,Sargodha,,120,72.6711,32.0836,,764
,BHX,Birmingham International Airport,Birmingham,,90,-1.75,52.45,,493
,BHY,Beihai,Beihai,,10,109.0833,21.4833,-8,713
,BIA,Poretta,Bastia,,70,9.45,42.7,-1,427
,BIB,Baidoa,Baidoa,,40,43.8,3.0667,-3,573
,BIC,Big Creek,Big Creek,,60,-157.5833,57.6667,9,67
,BID,Block Island,Block Island,2807,0,-71.5833,41.1694,5,67
,BIE,Beatrice,Beatrice,68310,80,-96.75,40.3167,6,67
,BIF,Biggs Aaf,El Paso,79936,60,-106.38,31.8494,,67
,BIG,Intermediate Field,Big Delta,,190,-145.7333,64,9,67
,BIH,Bishop,Bishop,93514,140,-118.35,37.3667,8,67
,BII,Enyu Airfield,Bikini Atoll,,80,165.55,11.5,12,844
,BIJ,Biliau,Biliau,,50,146.35,-5.5833,-10,804
,BIK,Frans Kaisepo,Biak,,30,136.1081,-1.19,9,832
,BIL,Billings,Billings,59105,190,-108.5333,45.8,7,67
,BIM,International,Bimini,,150,-79.2833,25.7,5,204
,BIN,Bamiyan,Bamiyan,,50,67.8167,34.8,-4.5,701
,BIO,Sondica,Bilbao,,80,-2.9106,43.3011,1,482
,BIP,Bulimba,Bulimba,,160,143.75,-16.15,-10,802
,BIQ,Biarritz Parme,Biarritz,,190,-1.5333,43.4667,1,427
,BIR,Biratnagar,Biratnagar,,80,87.2833,26.4347,-5.8,755
,BIS,Bismarck,Bismarck,58504,70,-100.75,46.7833,6,67
,BIT,Baitadi,Baitadi,,0,80.4333,29.5333,-5.8,755
,BIU,Bildudalur,Bildudalur,,140,-23.9833,65.8333,,439
,BIV,Bria,Bria,,80,21.9833,6.5333,-1,509
,BIW,Billiluna,Billiluna,,120,127.6333,-19.5833,-8,802
,BIX,Keesler AFB,Biloxi,39530,40,-88.4333,28.6667,,67
,BIY,Bisho,Bisho,,210,27.3333,-32.8333,-2,562
,BIZ,Bimin,Bimin,,180,142.0167,-5.2833,-10,804
,BJA,Bejaia,Bejaia,,100,5.0833,36.75,-1,500
,BJB,Bojnord,Bojnord,,190,19.0469,44.1172,,632
,BJC,Jeffco,Broomfield,80021,70,-105.0667,39.9333,7,67
,BJD,Bakkafjordur,Bakkafjordur,,50,-14.75,66.0667,,439
,BJF,Batsfjord,Batsfjord,,150,29.5,70.6333,-1,465
,BJG,Bolaang,Bolaang,,80,122.1119,-0.9606,,832
,BJH,Bajhang,Bajhang,,100,81.25,29.55,-5.8,755
,BJI,Bemidji,Bemidji,56601,210,-94.9333,47.5167,6,67
,BJJ,Wayne County,Wooster,44677,120,-81.9333,40.8,5,67
,BJK,Benjina,Benjina,,90,134.25,-6.0833,-9,832
,BJL,Yundum International,Banjul,,130,-16.6667,13.35,,527
,BJM,International,Bujumbura,,110,29.3167,-3.3167,-2,503
,BJN,Bajone,Bajone,,170,37.95,-17.1833,-2,550
,BJO,Bermejo,Bermejo,,170,-64.3333,-22.8667,4,312
,BJP,Braganca Paulista,Braganca Paulista,,120,-39.7667,-4.6333,,316
,BJR,Bahar Dar,Bahar Dar,,50,37.4167,11.7667,-3,522
,BJT,Bentota River,Bentota River,,20,79.9989,6.4211,,711
,BJU,Bajura Airport,Bajura,,190,81.6667,29.5,5.8,755
,BJV,Milas,Milas,,30,27.6644,37.2506,2,679
,BJW,Bajawa,Bajawa,,50,120.9667,-8.7833,-8,832
,BJY,Batajnica,Belgrade,,180,20.2575,44.9353,2,497
,BJZ,Talaveral La Real,Badajoz,,70,-6.8167,38.8833,-1,482
,BKA,Bykovo,Moscow,,210,38.06,55.6172,3,770
,BKB,Bikaner,Bikaner,,40,73.3,28.0167,-5.5,733
,BKC,Buckland,Buckland,99727,200,-161.1667,65.9833,9,67
,BKD,Stephens County,Breckenridge,76424,10,-98.9,32.75,6,67
,BKE,Baker,Baker,,160,-117.8167,44.8333,8,67
,BKF,Lake Brooks SPB,Katmai National Park,,110,-155.7775,58.5547,-9,67
,BKG,Branson,Branson,,150,-93.2006,36.5319,-6,67
,BKH,Barking Sands PMRF,Kekaha,,20,-159.7894,22.0247,-10,67
,BKI,Kota-Kinabalu International Airport,Kota-Kinabalu,,120,116.05,5.9372,8,749
,BKJ,Boke,Boke,,30,-14.2833,10.9667,,531
,BKK,Suvarnabhumi International,Bangkok,,140,100.7472,13.6811,7,782
,BKL,Burke Lakefront,Cleveland,44114,140,-81.6889,41.5111,5,67
,BKM,Bakalalan,Bakalalan,,20,115.6167,3.9667,-8,749
,BKN,Birni Nkoni,Birni Nkoni,,90,5.25,13.8,-1,554
,BKO,Bamako,Bamako,,140,-8.0167,12.6333,,543
,BKP,Barkly Downs,Barkly Downs,,0,138.25,-21.0333,-10,802
,BKQ,Blackall,Blackall,,170,145.4167,-24.4167,-10,802
,BKR,Bokoro,Bokoro,,160,17.25,12.8333,-1,511
,BKS,Padangkemiling,Bengkulu,,130,102.3,-3.7667,-7,832
,BKT,Blackstone AAF,Blackstone,23824,90,-77.95,37.0833,5,67
,BKU,Betioky,Betioky,,70,44.3833,-23.7333,-3,541
,BKW,Beckley,Beckley,25813,150,-81.1167,37.7833,5,67
,BKX,Brookings,Brookings,57006,50,-96.8167,44.3,6,67
,BKY,Kavumu,Bukavu,,190,28.8333,2.45,2,517
,BKZ,Bukoba,Bukoba,,10,31.8,-1.3,-3,585
,BLA,Gen J A Anzoategui,Barcelona,,210,-64.6958,10.1214,4,388
,BLB,Balboa,Balboa,,160,-79.5667,8.95,5,162
,BLC,Bamenda,Bali,,20,10.1228,6.0392,1,504
,BLD,Boulder City,Boulder City,89005,50,-9.7986,8.7344,,67
,BLE,Dala Airport,Borlange,,140,15.5,60.3667,-1,484
,BLF,Princeton,Princeton,,30,-81.2,37.3,5,67
,BLG,Belaga,Belaga,,30,113.7667,2.65,-8,749
,BLH,Blythe,Blythe,92225,200,-114.7167,33.6167,8,67
,BLI,Bellingham,Bellingham,98226,50,-122.5333,48.8,8,67
,BLJ,Batna,Batna,,110,6.1667,35.55,-1,500
,BLK,Blackpool Airport,Blackpool,,190,-3.0286,53.7717,,493
,BLL,Billund,Billund,,70,9.15,55.7333,1,419
,BLM,Monmouth Executive Airport,Belmar - Farmingdale,7727,10,-74.1236,40.1856,-5,67
,BLN,Benalla,Benalla,,80,145.9833,-36.55,-10,802
,BLO,Blonduos,Blonduos,,210,-20.3,65.6667,,439
,BLP,Bellavista,Bellavista,,20,-77.1333,-12.025,5,368
,BLQ,Guglielmo Marconi,Bologna,,30,11.2886,44.5356,1,450
,BLR,Bangalore International Airport,Bangalore,,10,77.6,12.9667,5.5,733
,BLS,Bollon,Bollon,,140,147.3667,-28.0333,-10,802
,BLT,Blackwater,Blackwater,,90,148.8833,-23.5833,-10,802
,BLU,Blue Canyon,Blue Canyon,95959,110,-3.4014,51.1811,,67
,BLV,Belleville,Belleville,62225,160,-77.3833,44.1667,,67
,BLW,Bellows Field,Waimanalo,96795,150,-157.7167,21.35,10,67
,BLX,Belluno,Belluno,,160,12.3417,46.3333,-1,450
,BLY,Belmullet,Belmullet,,70,-10,54.2333,,441
,BLZ,Chileka,Blantyre,,120,34.9667,-15.6833,-2,542
,BMA,Bromma,Stockholm,,200,17.95,59.3528,1,484
,BMB,Bumba,Bumba,,0,22.55,2.3,-2,517
,BMC,Brigham City,Brigham City,84302,190,-112.05,41.5333,7,67
,BMD,Belo,Belo,,160,44.55,-19.6667,-3,541
,BME,Broome,"Broome, Western Australia",,180,122.2317,-17.9447,8,802
,BMF,Bakouma,Bakouma,,130,22.8,5.7333,-1,509
,BMG,Bloomington,Bloomington,47403,40,-86.6167,39.1333,5,67
,BMH,Bomai,Bomai,,20,144.6333,-6.3667,-10,804
,BMI,Central Illinois Regional Airport at Bloomington-Normal,"Bloomington/Normal, IL",,0,-88.9158,40.4772,-6,67
,BMJ,Baramita,Baramita,,150,-58.55,5.4333,3,350
,BMK,Borkum,Borkum,,170,6.7,53.6,-1,429
,BML,Berlin Municipal Airport,Berlin,3588,100,-71.1758,44.5753,5,67
,BMM,Bitam,Bitam,,60,11.4933,2.0756,1,526
,BMN,Bamerny,Bamerny,,30,43.2667,37.1156,3,634
,BMO,Bhamo,Bhamo,,90,97.25,24.2667,-6.5,706
,BMP,Brampton Island,Brampton Island,,40,149.2333,-20.7833,-10,802
,BMQ,Bamburi,Bamburi,,100,39.7333,-3.95,-3,535
,BMR,Baltrum,Baltrum Island,,160,7.3758,53.7311,-1,429
,BMS,Brumado,Brumado,,210,-41.6667,-14.2167,3,316
,BMT,Beaumont Muni,Beaumont,77713,50,-73.95,18.5,,67
,BMU,Bima,Bima,,200,118.7167,-8.4667,-8,832
,BMV,Phung-Duc,Banmethuot,,100,108.1,12.6667,-7,791
,BMW,Bordj Badji Mokhtar,Bordj Badji Mokhtar,,120,1.0667,21.1333,-1,500
,BMX,Big Mountain,Big Mountain,,120,-155.2667,59.3667,9,67
,BMY,Belep Island,Belep Island,,90,163.6667,-19.75,-11,846
,BMZ,Bamu,Bamu,,180,143.2333,-7.8333,-10,804
,BNA,Nashville International,Nashville,37217,70,-86.6781,36.1244,-6,67
,BNB,Boende,Boende,,210,20.8333,-0.2333,-1,517
,BNC,Beni,Beni,,200,29.4667,0.5667,-2,517
,BND,Bandar Abbas,Bandar Abbas,,10,56.25,27.2,-3.5,632
,BNE,Brisbane International,Brisbane,,120,153.1167,-27.3833,10,802
,BNF,Warm Spring Bay SPB,Baranof,,80,-134.8167,57.0833,9,67
,BNG,Banning,Banning,92220,50,-116.8667,33.9333,8,67
,BNH,Barnes,Hartford,6103,100,-72.6833,41.7664,-4,67
,BNI,Benin City,Benin City,,10,5.6167,6.3167,-1,555
,BNK,Ballina Byron Gateway,Ballina,,150,153.5625,-28.8689,10,802
,BNL,Barnwell Regional,Barnwell,29812,70,-81.3883,33.2578,-5,67
,BNM,Bodinumu,Bodinumu,,20,147.5,-9.0833,-10,804
,BNN,Bronnoy,Bronnoysund,,80,12.2167,65.4833,-1,465
,BNO,Burns,Burns,97720,20,-118.95,43.5833,8,67
,BNP,Bannu,Bannu,,130,70.5333,32.9667,5,764
,BNQ,Baganga,Baganga,,200,126.5667,7.5833,-8,766
,BNR,Banfora,Banfora,,190,-4.7667,10.6333,,593
,BNS,Barinas,Barinas,,10,-70.2167,8.6167,4,388
,BNT,Bundi,Bundi,,30,145.2167,-5.7333,-10,804
,BNU,Blumenau,Blumenau,,80,-49.05,-26.9333,3,316
,BNV,Boana,Boana,,210,146.8167,-6.4167,-10,804
,BNW,Boone,Boone,50036,150,-93.8833,42.0667,6,67
,BNX,Banja Luka,Banja Luka,,30,17.1833,44.7667,-1,410
,BNY,Bellona,Bellona,,180,159.8167,-11.3,-11,874
,BNZ,Banz,Banz,,100,144.6167,-5.7833,-10,804
,BOA,Boma,Boma,,150,13.0667,-5.8167,-1,517
,BOB,Motu Mute,Bora Bora,,210,-151.7514,-16.4444,-10,823
,BOC,Bocas Del Toro,Bocas Del Toro,,150,-82.25,9.35,5,162
,BOE,Boundji,Boundji,,50,15.3833,-1.0333,-1,515
,BOF,Bolling AFB,Washington,,210,-72.5,49,,67
,BOG,Eldorado International,Bogota,,50,-74.1383,4.7031,-5,327
,BOH,Bournemouth International,Bournemouth,,180,-1.8425,50.78,,493
,BOI,Boise Air Terminal/Gowen Field,Boise,,80,-116.2228,43.5644,-7,67
,BOJ,Bourgas,Bourgas,,10,27.5,42.5667,-2,411
,BOK,Brookings State,Brookings,97415,40,-124.2833,42.05,8,67
,BOL,Bally Kelly,Bally Kelly,,120,-6.7667,55.1667,,493
,BOM,Chhatrapati Shivaji International,Mumbai,,110,72.8681,19.0886,5.5,733
,BON,Flamingo International,Kralendijk,,20,-68.2686,12.1311,-4,259
,BOO,Bodo,Bodo,,70,14.3667,67.2667,-1,465
,BOP,Bouar,Bouar,,30,15.6333,5.9667,-1,509
,BOQ,Boku,Boku,,210,155.2167,-6.2667,-10,804
,BOR,Fontaine,Belfort,,20,7.0167,47.65,-1,427
,BOS,Logan International,Boston,2128,40,-71,42.3631,-5,67
,BOU,Bourges,Bourges,,120,2.3667,47.0667,-1,427
,BOV,Boang,Boang,,130,153.3333,-3.3667,-10,804
,BOW,Bartow,Bartow,33880,190,-81.7833,27.9333,5,67
,BOX,Borroloola,Borroloola,,150,136.3,-16.0833,-9.5,802
,BOY,Borgo,Bobo Dioulasso,,110,-4.3167,11.1667,,593
,BOZ,Bozoum,Bozoum,,190,16.3833,6.3167,-1,509
,BPA,Grumman,Bethpage,11714,190,-73.4833,40.75,5,67
,BPB,Boridi,Boridi,,170,147.5333,-9.1333,-10,804
,BPC,Bamenda,Bamenda,,50,10.1167,6.05,-1,504
,BPD,Bapi,Bapi,,40,147.0167,-7.75,-10,804
,BPE,Bagan,Bagan,,200,96,24,,706
,BPF,Batuna Aerodrome,Batuna,,30,158.1167,-8.55,,874
,BPG,Barra Do Garcas,Barra Do Garcas,,140,-52.3833,-15.85,4,316
,BPH,Bislig,Bislig,,100,126.3667,8.2,-8,766
,BPI,Big Piney-marbleton,Big Piney,83113,90,-110.1167,42.5833,7,67
,BPK,Biangabip,Biangabip,,210,144.9333,-6.0667,,804
,BPN,Sepingan,Balikpapan,,50,116.9,-1.2667,-8,832
,BPS,Porto Seguro,Porto Seguro,,80,-39.0808,-16.4386,-3,316
,BPT,Jefferson County,Beaumont,77705,200,-94.1,30.0833,6,67
,BPU,Beppu,Beppu,,20,131.5333,33.3,-9,736
,BPX,Bangda,Bangda,,180,97.1089,30.5397,8,713
,BPY,Besalampy,Besalampy,,30,44.4833,-16.75,-3,541
,BQA,Baler,Baler,,190,121.5,15.7297,8,766
,BQB,Bussellton,Bussellton,,110,115.3953,-33.6925,8,802
,BQE,Bubaque,Bubaque,,10,-15.85,11.3,,559
,BQI,Bagani,Bagani,,40,-7.85,11.4,,575
,BQK,Glynco Jetport,Brunswick,31525,120,-81.45,31.25,5,67
,BQL,Boulia,Boulia,,40,139.9667,-22.9667,-10,802
,BQN,Borinquen,Aguadilla,,60,-67.15,18.4167,4,3
,BQO,Bouna,Bouna,,90,-3.0317,9.2544,,533
,BQQ,Barra,Barra,,200,-43.1667,-11.0667,3,316
,BQS,Blagoveschensk,Blagoveschensk,,20,127.4,50.4167,-2,770
,BQT,Brest,Brest,,170,23.8833,52.1167,-2,413
,BQU,J. F. Mitchell,Bequia,,110,-61.2619,12.9883,-4,279
,BQV,Bartlett SPB,Gustavus,99826,30,-135.8833,58.45,9,67
,BQW,Balgo Hills,Balgo Hills,,40,127.8,-20.1333,-8,802
,BRA,Barreiras,Barreiras,,0,-45,-12.05,3,316
,BRB,Barreirinhas,Barreirinhas,,10,-42.8333,-2.8333,3,316
,BRC,International,San Carlos DeBariloche,,100,-71.1667,-41.1333,3,303
,BRD,Brainerd Lakes Regional,Brainerd,56401,110,-94.1356,46.4017,-6,67
,BRE,Bremen,Bremen,,0,8.7833,53.05,-1,429
,BRF,Bradford,Bradford,,30,-3.1833,51,,493
,BRG,Municipal,Whitesburg,41858,80,-82.8167,37.1167,5,67
,BRH,Brahman,Brahman,,20,145.3667,-5.7,-10,804
,BRI,Palese,Bari,,140,16.7833,41.1333,-1,450
,BRJ,Bright,Bright,,200,146.9667,-36.7333,-10,802
,BRK,Bourke,Bourke,,190,145.95,-30.05,-10,802
,BRL,Burlington,Burlington,5403,20,-91.1167,40.7833,6,67
,BRM,Barquisimeto,Barquisimeto,,210,-69.3586,10.0428,-4,338
,BRN,Belp,Berne,,130,7.4969,46.9139,-1,486
,BRO,South Padre Is. Intl,Brownsville,78521,90,-97.4167,25.9167,6,67
,BRP,Biaru,Biaru,,50,146.35,-7.6667,-10,804
,BRQ,Turany,Brno,,170,16.6944,49.1514,1,418
,BRR,North Bay,Barra,,0,-7.4333,57.0167,,493
,BRS,Bristol,Bristol,,100,-2.7167,51.3833,,493
,BRT,Bathurst Island,Bathurst Island,,10,130.6333,-11.7667,-9.5,802
,BRU,Brussels Airport,Brussels,,80,4.4858,50.9022,2,409
,BRV,Bremerhaven,Bremerhaven,,30,8.9167,53.75,-1,429
,BRW,Wiley Post/W.Rogers M,Barrow,99723,180,-156.65,71.3333,9,67
,BRX,Barahona,Barahona,,140,-71.1167,18.2167,4,224
,BRY,Samuels Field,Bardstown,40004,80,-85.4667,37.8167,-5,67
,BRZ,Borotou,Borotou,,100,-7.5,8.7333,,533
,BSA,Bossaso,Bossaso,,160,49.1833,11.2833,3,573
,BSC,Bahia Solano,Bahia Solano,,10,-77.4,6.1833,5,327
,BSD,Baoshan,Baoshan,,100,99.15,25.15,-8,713
,BSE,Sematan,Sematan,,210,109.7667,1.8,-8,749
,BSF,Bradshaw AAF,Pohakuloa,,100,25.8667,66.15,,67
,BSG,Bata,Bata,,150,9.8,1.9,-1,521
,BSH,Brighton,Brighton,,10,-0.1333,50.8333,,493
,BSI,Blairsville,Blairsville,30512,60,-79.2667,40.4333,5,67
,BSJ,Bairnsdale,Bairnsdale,,120,147.5667,-37.8833,-10,802
,BSK,Biskra,Biskra,,70,5.7333,34.8,-1,500
,BSL,Euroairport Basel Mulhouse Freiburg,Mulhouse/basel,,70,7.5333,47.6,-1,486
,BSM,Bishe-kola,Bishe-kola,,90,52.3497,36.6553,3.5,67
,BSN,Bossangoa,Bossangoa,,150,17.4333,6.5,-1,509
,BSO,Basco,Basco,,70,121.9833,20.4333,-8,766
,BSP,Bensbach,Bensbach,,60,141.25,-8.85,10,804
,BSQ,Bisbee Municipal Arpt,Bisbee,85603,90,-109.8811,31.3639,7,67
,BSR,International,Basra,,170,47.7667,30.55,-3,634
,BSS,Balsas,Balsas,,20,-46.0333,-7.5,3,316
,BST,Bost,Bost,,150,64.3667,31.55,-4.5,701
,BSU,Basankusu,Basankusu,,90,19.8,1.2167,-1,517
,BSV,Besakoa,Besakoa,,70,141.0833,-7.2333,-10,804
,BSW,Boswell Bay,Boswell Bay,,180,-146.1333,60.4,9,67
,BSX,Bassein,Bassein,,190,94.7833,16.8,-6.5,706
,BSY,Bardera,Bardera,,90,42.3333,2.35,-3,573
,BSZ,Bartletts,Bartletts,,40,-157.4833,58.2667,9,67
,BTB,Betou,Betou,,40,18.5167,3.05,-1,515
,BTC,Batticaloa,Batticaloa,,80,81.6667,7.7,-5.5,711
,BTD,Brunette Downs,Brunette Downs,,80,135.9333,-18.6333,-9.5,802
,BTE,Bonthe,Bonthe,,0,-12.5,7.5167,,571
,BTF,Salt Lake Skypark,Bountiful,84087,0,-111.8833,40.8833,7,67
,BTG,Batangafo,Batangafo,,30,18.3,7.3,-1,509
,BTH,Hang Nadim,Batam,,110,104.1333,1.0667,-7,832
,BTI,Barter Island,Barter Island,,150,-143.6333,70.1333,9,67
,BTJ,Sultan Iskandarmuda Airport,Banda Aceh,,200,95.3417,5.4167,7,832
,BTK,Bratsk,Bratsk,,60,102.0667,56.1667,-2,770
,BTL,WK Kellogg Regional,Battle Creek,49037,170,-85.25,42.3,5,67
,BTM,Bert Mooney Airport,"Butte, (MT)",59701,170,-112.4975,45.9547,-7,67
,BTN,Bennettsville,Bennettsville,29512,130,-79.6833,34.6167,5,67
,BTO,Botopasie,Botopasie,,100,-55.45,4.2333,3,379
,BTP,Butler County - Kenny Scholter Field,Butler,16053,180,-79.9497,40.7936,5,67
,BTQ,Butare,Butare,,160,29.7333,-2.6,-2,566
,BTR,Ryan,Baton Rouge,,170,-91.15,30.5333,6,67
,BTT,Bettles,Bettles,99726,160,-151.5167,66.9167,9,67
,BTU,Bintulu,Bintulu,,200,113.0333,3.2,-8,749
,BTV,Burlington International,Burlington,5403,170,-73.1533,44.4719,-5,67
,BTW,Batu Licin,Batu Licin,,130,116,-3.45,-8,832
,BTX,Betoota,Betoota,,80,140.8,-25.6333,-10,802
,BTY,Beatty,Beatty,89003,40,-1.7833,52.9,,67
,BTZ,Bursa Airport,Bursa,,90,29.0094,40.2325,-2,679
,BUA,Buka,Buka,,70,154.75,-5.3333,-10,804
,BUB,Municipal,Burwell,68823,60,-99.1333,41.7833,6,67
,BUC,Burketown,Burketown,,90,139.5333,-17.75,-10,802
,BUD,Ferihegy,Budapest,,100,19.2556,47.4367,1,437
,BUF,Buffalo Niagara International,Buffalo,14225,30,-78.7322,42.9406,-5,67
,BUG,Gen V Deslandes,Benguela,,210,13.4036,-12.6089,1,502
,BUH,Metropolitan Area,Bucharest,,160,26.1,44.4333,2,473
,BUI,Bokondini,Bokondini,,90,138.65,-3.7167,-9,832
,BUJ,Ain Eddis,Boussaada,,70,4.2064,35.3325,1,500
,BUK,Albuq,Albuq,,80,43.7667,15.8333,-3,694
,BUL,Bulolo,Bulolo,,30,146.65,-7.2,-10,804
,BUM,Butler,Butler,,120,-94.3167,38.25,6,67
,BUN,Buenaventura,Buenaventura,,210,-77,3.8333,5,327
,BUO,Burao,Burao,,30,45.5667,9.5167,-3,573
,BUP,Bhatinda,Bhatinda,,160,74.9667,30.1667,-5.5,733
,BUQ,Bulawayo,Bulawayo,,160,28.6333,-20.0167,-2,565
,BUR,Bob Hope,Burbank,91504,90,-118.35,34.2,8,67
,BUS,Batum,Batumi,,70,41.5997,41.6103,-2,432
,BUT,Burtonwood,Burtonwood,,20,-2.5833,53.4167,,493
,BUU,Buyo,Buyo,,140,-7.05,6.2667,,533
,BUV,Bella Union,Bella Union,,160,-57.0833,-30.3333,3,385
,BUW,Baubau,Baubau,,30,122.6333,-5.4667,-8,832
,BUX,Bunia,Bunia,,180,30.2167,1.5667,-2,517
,BUY,Bunbury,Bunbury,,110,115.6767,-33.3783,8,802
,BUZ,Bushehr,Bushehr,,160,50.8167,28.95,-3.5,632
,BVA,Beauvais-Tille,Paris,,210,2.1167,49.45,1,427
,BVB,Boa Vista,Boa Vista,,30,-60.6833,2.8333,4,316
,BVC,Rabil,Boa Vista,,60,-22.8889,16.1367,-1,507
,BVD,Sea Port,Beaver Inlet,,20,-166.3167,53.7333,9,67
,BVE,Laroche,Brive-La-Gaillarde,,40,1.4667,45.15,-1,427
,BVF,Dama,Bua,,10,178.6167,-16.8,-12,821
,BVG,Berlevag,Berlevag,,160,29,70.8667,-1,465
,BVH,Vilhena,Vilhena,,90,-60.1333,-12.6333,4,316
,BVI,Birdsville,"Birdsville, Queensland",,40,139.3475,-25.8975,10,802
,BVK,Huacaraje,Huacaraje,,120,63.75,13.55,,312
,BVL,Baures,Baures,,50,63.5833,13.5833,,312
,BVM,Belmonte,Belmonte,,180,-38.9,-15.85,3,316
,BVO,Bartlesville,Bartlesville,74003,110,-96,36.7667,6,67
,BVP,Bolovip,Bolovip,,200,141.7,-5.3833,-10,804
,BVR,Esperadinha,Brava,,190,-56.5833,-31.6667,,507
,BVS,Breves,Breves,,160,-50.4667,-1.6667,3,316
,BVU,Beluga,Beluga,,140,151.0361,61.1694,,67
,BVW,Batavia Downs,Batavia Downs,,30,143.25,-12.45,-10,802
,BVX,Municipal,Batesville,72501,90,-91.65,35.7667,6,67
,BVY,Beverly Municiple Airport,Beverly,1915,140,-70.8333,42.5167,5,67
,BVZ,Beverley Springs,Beverley Springs,,190,125.45,-17.9833,-8,802
,BWA,Bhairawa,Bhairawa,,130,83.4189,27.5058,-5.8,755
,BWB,Barrow Island,Barrow Island,,200,115.3833,-20.8,-8,802
,BWC,Brawley,Brawley,92227,170,-115.5167,32.9833,8,67
,BWD,Brownwood,Brownwood,76802,210,-98.95,31.8,6,67
,BWE,Braunschweig,Braunschweig,,160,10.5561,52.3192,-1,429
,BWF,Walney Island,Barrow-In-Furness,,180,-3.2333,54.1167,,493
,BWG,Warren County,Bowling Green,42103,80,-86.4167,36.9667,6,67
,BWH,Butterworth,Butterworth,,130,100.4,5.4167,-8,749
,BWI,Baltimore/Washington International Thurgood Marshall,Baltimore,,150,-76.6683,39.1753,-5,67
,BWJ,Bawan,Bawan,,30,146.9,-6.4,-10,804
,BWK,Bol,Bol,,110,16.655,43.2619,1,385
,BWL,Blackwell,Blackwell,74631,120,-97.2833,36.8,6,67
,BWM,Bowman,Bowman,,20,-103.5833,46.1333,7,67
,BWN,Bandar Seri Begwan International Airport,Bandar Seri Begawan,,150,114.9283,4.9442,8,704
,BWO,Balakovo,Balakovo,,160,47.75,51.8667,-2,770
,BWP,Bewani,Bewani,,0,141.1,-3.0833,-10,804
,BWQ,Brewarrina,Brewarrina,,20,146.8167,-29.9667,-10,802
,BWS,Blaine,Blaine,,210,-122.8333,48.9667,8,67
,BWT,Burnie Wynyard,Burnie,,100,145.7333,-41,-10,802
,BWU,Sydney Bankstown,Sydney,,0,150.9833,-33.9167,-10,802
,BWY,Bentwaters St,Woodbridge,,10,1.3167,52.1,,493
,BXA,George R Carr,Bogalusa,70427,210,-89.8667,30.7833,6,67
,BXB,Babo,Babo,,40,133.4167,-2.55,-9,832
,BXC,Boxborough,Boxborough,,210,-71.5353,42.4836,5,67
,BXD,Bade,Bade,,70,139.5833,-7.1667,-9,832
,BXE,Bakel,Bakel,,150,-12.9083,14.9167,,569
,BXF,Belburn,Belburn,,10,12.5,64.2333,,802
,BXG,Bendigo,Bendigo,,180,144.3297,-36.7394,10,802
,BXH,Balhash,Balhash,,130,75.0167,46.8833,-2,738
,BXI,Boundiali,Boundiali,,190,-6.4833,9.5167,,533
,BXJ,Burundai,Burundai,,60,74.0167,45.0833,,738
,BXK,Buckeye Municipal,Buckeye,85326,20,-112.5833,33.3667,7,67
,BXL,Blue Lagoon,Blue Lagoon,,120,177.3639,-16.9361,-12,821
,BXM,Batom,Batom,,190,139.6,-2.2833,-9,832
,BXN,Imsik Airport,Bodrum,,180,27.6672,37.1347,-2,679
,BXO,Buochs,Buochs,,120,-15.65,11.8833,,559
,BXR,Bam,Bam,,130,58.5,29,,632
,BXS,Borrego Springs,Borrego Springs,92004,180,-116.3167,33.25,8,67
,BXT,Bontang,Bontang,,10,117.4747,0.1194,8,548
,BXU,Butuan,Butuan,,40,125.4167,8.9667,-8,766
,BXV,Breiddalsvik,Breiddalsvik,,180,-13.8333,64.8,,439
,BXX,Borama International,Borama,,130,43.15,9.9333,3,573
,BYA,Boundary,Boundary,99780,60,-141.1167,64.0833,9,67
,BYB,Dibaa,Dibaa,,20,56.2333,25.6,4,658
,BYC,Yacuiba,Yacuiba,,50,-63.7,-21.9667,4,312
,BYD,Beidah,Beidah,,190,46.55,14.1333,-3,694
,BYG,Municipal,Buffalo,73834,160,-106.7,44.35,7,67
,BYH,Blytheville AFB,Blytheville,72315,190,-89.9439,35.9644,-6,67
,BYI,Rupert,Rupert,83318,170,-113.7667,42.5333,7,67
,BYK,Bouake,Bouake,,20,-5.0667,7.7333,,533
,BYL,Bella Yella,Bella Yella,,10,-10,7.3667,,537
,BYM,C.M. de Cespedes,Bayamo,,160,-76.5,20.2833,5,219
,BYN,Bayankhongor,Bayankhongor,,200,100.6833,46.1,-8,751
,BYO,Bonito Airport,Bonito,,170,-38.65,-4.55,,316
,BYQ,Bunyu,Bunyu,,50,117.8667,3.4667,-8,832
,BYR,Laeso Airport,Laeso Island,,150,11,57.1167,,419
,BYS,Bicycle Lake AAF,Fort Irwin,92310,100,-116.6333,35.2833,,67
,BYT,Bantry,Bantry,,180,-9.45,51.6833,,441
,BYU,Bindlacher-Berg,Bayreuth,,190,11.5861,49.95,-1,429
,BYW,Blakely Island,Blakely Island,,140,-122.8333,48.5833,8,67
,BYX,Baniyala,Baniyala,,80,136.2333,-13.2,-9.5,802
,BZA,San Pedro,Bonanza,,0,-84.6,13.95,6,153
,BZB,Bazaruto Island,Bazaruto Island,,130,36.3333,-18.7167,,550
,BZC,Buzios,Buzios,,120,-41.9644,-22.7694,3,316
,BZD,Balranald,Balranald,,180,143.55,-34.6333,-10,802
,BZE,Philip S. W. Goldson International,Belize City,,80,-88.3083,17.5392,-6,106
,BZG,Bydgoszcz I. J. Paderewski Airport,Bydgoszcz,,100,17.9778,53.0967,1,467
,BZH,Bumi Hills,Bumi Hills,,10,28.5167,-17.4833,,565
,BZI,Balikesir,Balikesir,,120,27.9333,39.6167,-2,679
,BZK,Briansk,Briansk,,40,34.3333,53.2667,-2,770
,BZL,Barisal,Barisal,,100,90.3417,22.6667,-6,703
,BZM,Woensdrecht,Bergen Op Zoom,,190,4.2833,51.5,-1,461
,BZN,Gallatin Field,Bozeman,59714,30,-111.1531,45.7775,7,67
,BZO,Bolzano,Bolzano,,140,11.3167,46.45,-1,450
,BZP,Bizant,Bizant,,100,144.6333,-15.2167,-10,802
,BZR,Beziers Vias,Beziers,,120,3.3533,43.3233,1,427
,BZS,Buzzards Pt S,Washington,,120,-72.5,49,,67
,BZT,Hinkles Ferry,Brazoria,77422,50,-95.5667,29.05,6,67
,BZU,Buta,Buta,,50,24.7333,2.8,-2,517
,BZV,Maya Maya,Brazzaville,,10,15.25,-4.25,-1,515
,BZY,Beltsy,Beltsy,,190,27.7814,47.8381,2,457
,BZZ,Raf Brize Norton,Oxford,,50,-1.5839,51.75,,493
,CAA,Catacamas,Catacamas,,130,-85.8833,14.8833,6,131
,CAB,Cabinda,Cabinda,,20,12.1833,-5.55,-1,502
,CAC,Cascavel,Cascavel,,60,-53.4833,-24.95,3,316
,CAD,Cadillac,Cadillac,,50,-85.4222,44.2758,5,67
,CAE,Metropolitan Airport,Columbia,29170,80,-81.1167,33.95,-5,67
,CAF,Carauari,Carauari,,160,-66.9167,-4.9,4,316
,CAG,Elmas,Cagliari,,130,9.05,39.2514,1,450
,CAH,Ca Mau,Ca Mau,,100,105.15,9.1667,-7,791
,CAI,Cairo International,Cairo,,190,31.4056,30.1219,2,591
,CAJ,Canaima,Canaima,,110,-62.8333,6.25,4,388
,CAK,Akron/canton Regional,"Akron/Canton, OH",44720,190,-81.4422,40.9161,-5,67
,CAL,Machrihanish,Campbeltown,,70,-5.6,55.4167,,493
,CAM,Camiri,Camiri,,20,-63.5667,-20.0167,4,312
,CAN,Baiyun,Guangzhou,,110,113.2989,23.3925,8,713
,CAO,Clayton,Clayton,36016,0,-103.1833,36.45,7,67
,CAP,Cap Haitien,Cap Haitien,,130,-72.2,19.7833,5,509
,CAQ,Caucasia,Caucasia,,80,-75.25,7.6,5,327
,CAR,Municipal,Caribou,4736,210,-68.0167,46.8667,5,67
,CAS,Anfa,Casablanca,,160,-7.5,33.5833,,548
,CAT,New Bight,Cat Island,,180,-75.4522,24.3,-5,204
,CAU,Caruaru,Caruaru,,80,-35.9667,-8.2833,3,316
,CAV,Cazombo,Cazombo,,150,22.9333,-11.8833,-1,502
,CAW,Bartolomeu Lisandro,Campos,,160,-41.3,-21.75,3,316
,CAX,Carlisle,Carlisle,,150,-2.8,54.9333,,493
,CAY,Rochambeau,Cayenne,,50,-52.3333,4.9333,3,344
,CAZ,Cobar,Cobar,,190,145.8,-31.5333,-10,802
,CBA,Corner Bay,Corner Bay,,40,-135.2,57.7167,9,67
,CBB,J Wilsterman,Cochabamba,,60,-66.15,-17.4,4,312
,CBC,Cherrabun,Cherrabun,,10,125.3667,-18.6667,-8,802
,CBD,Car Nicobar,Car Nicobar,,180,92.7833,9.1667,-5.5,733
,CBE,Greater Cumberland Regional,Cumberland,21502,120,-78.7619,39.6153,-5,67
,CBF,Municipal,Council Bluffs,51503,130,-95.8667,41.2667,6,67
,CBG,Cambridge,Cambridge,,80,0.1833,52.2,,493
,CBH,Leger,Bechar,,110,-2.25,31.65,-1,500
,CBI,Cape Barren Island,Cape Barren Island,,30,132.15,-31.9833,,802
,CBJ,Cabo Rojo,Cabo Rojo,,180,-71.65,17.9333,4,224
,CBK,Municipal,Colby,67701,140,-101.05,39.4167,6,67
,CBL,Ciudad Bolivar,Ciudad Bolivar,,120,-63.5333,8.1333,4,388
,CBM,Columbus AFB,Columbus,39705,120,-88.4439,33.6439,,67
,CBN,Penggung,Cirebon,,150,108.5333,-6.75,-7,832
,CBO,Awang,Cotabato,,20,124.1667,7.2,-8,766
,CBP,Coimbra,Coimbra,,0,-8.4722,40.1614,,469
,CBQ,Calabar,Calabar,,140,8.3333,4.9833,-1,555
,CBR,Canberra,Canberra,,130,149.195,-35.3069,-10,802
,CBS,Oro Negro,Cabimas,,90,-71.4667,10.3833,4,388
,CBT,Catumbela,Catumbela,,0,13.4833,-12.4833,-1,502
,CBU,Cottbus,Cottbus,,20,14.2833,51.7667,,429
,CBV,Coban,Coban,,80,-90.25,15.5833,6,127
,CBW,Campo Mourao,Campo Mourao,,130,-52.3667,-24.05,,316
,CBX,Condobolin,Condobolin,,110,147.2,-33.0667,-10,802
,CBY,Canobie,Canobie,,210,140.9167,-19.6333,-10,802
,CBZ,Cabin Creek,Cabin Creek,,140,-132.4167,55.3833,9,67
,CCA,Chaffee AFB,Fort Chaffee,,130,-72.5,19.8333,,67
,CCB,Cable Airport,Upland,91786,160,-117.6875,34.1117,-8,67
,CCC,Cayo Coco,Cayo Coco,,40,-78.5108,22.5133,-5,219
,CCF,Salvaza,Carcassonne,,180,2.3167,43.2167,-1,427
,CCG,Crane County Arpt,Crane,79731,70,-102.35,31.4,6,67
,CCH,Chile Chico,Chile Chico,,170,-71.7,-46.55,4,324
,CCI,Concordia,Concordia,,130,-52.0333,-27.25,3,316
,CCJ,Kozhikode Airport,Kozhikode,,200,75.9553,11.1369,5.5,733
,CCK,Cocos Islands,Cocos Islands,,170,96.8333,-12.1833,-6.5,812
,CCL,Chinchilla,Chinchilla,,70,150.6167,-26.7833,-10,802
,CCM,Criciuma,Criciuma,,150,-49.3667,-28.7,3,316
,CCN,Chakcharan,Chakcharan,,90,65.2667,34.5333,-4.5,701
,CCO,Carimagua,Carimagua,,200,-71.3333,4.5667,5,327
,CCP,Carriel Sur,Concepcion,,70,-73.0844,-36.79,4,324
,CCQ,Cachoeira,Cachoeira,,50,-38.9667,-12.6,3,316
,CCR,Buchanan Field,Concord,94520,90,-122.0569,37.9897,-8,67
,CCS,Simon Bolivar International Airport,Caracas,,0,-66.9906,10.6031,-4,388
,CCT,Colonia Catriel,Colonia Catriel,,180,-67.8667,-37.85,3,303
,CCU,Netaji Subhas Chandra,Kolkata,,210,88.4467,22.6547,5.5,733
,CCV,Craig Cove,Craig Cove,,180,167.5,-16.2,-11,885
,CCW,Cowell,Cowell,,150,136.9,-33.6667,-9.5,802
,CCX,Caceres,Caceres,,130,-57.63,-16.0436,-3,316
,CCY,Municipal,Charles City,50616,70,-92.6667,43.0667,6,67
,CCZ,Chub Cay,Chub Cay,,80,-77.8833,25.4167,5,204
,CDA,Cooinda,Cooinda,,0,132.5167,-12.9,-9.5,802
,CDB,Cold Bay,Cold Bay,99571,140,-162.7167,55.2,9,67
,CDC,Cedar City,Cedar City,84721,30,-113.1,37.7,7,67
,CDD,Cauquira,Cauquira,,190,-83.5833,15.3167,,131
,CDE,Caledonia,Caledonia,,200,-77.3333,8.2333,5,162
,CDG,Charles De Gaulle,Paris,,210,2.5478,49.0097,1,427
,CDH,Harrell Fld,Camden,71701,150,-92.7667,33.6167,6,67
,CDI,Cachoeiro Itapemirim,Cachoeiro Itapemirim,,170,-41.6333,-12.4167,,316
,CDJ,Conceicao Do Araguaia,Conceicao Do Araguaia,,110,-49.2833,-8.2833,3,316
,CDK,Lewis,Cedar Key,32625,190,-83.0333,29.1333,5,67
,CDL,Candle,Candle,,0,-161.9167,65.9,9,67
,CDN,Woodward Fld,Camden,29020,160,-80.6,34.2667,5,67
,CDO,Cradock,Cradock,,190,25.6458,-32.1556,2,562
,CDP,Cuddapah,Cuddapah,,110,78.7833,14.5167,-5.5,733
,CDQ,Croydon,Croydon,,130,142.25,-18.3,-10,802
,CDR,Chadron,Chadron,69337,50,-103.0833,42.8333,7,67
,CDS,Childress,Childress,79201,210,-100.2167,34.4167,6,67
,CDU,Camden,Camden,,60,150.6872,-34.0403,10,61
,CDV,Mudhole Smith,Cordova,99574,70,-145.4833,60.4833,9,67
,CDW,Caldwell Wright,Caldwell,,70,-74.2814,40.8753,-5,67
,CDY,Cagayan De Sulu,Cagayan De Sulu,,150,118.5,7.0167,-8,766
,CDZ,Cadiz,Cadiz,,90,-6.2994,36.5336,,482
,CEA,Cessna Aircraft Field,Wichita,,10,101.1125,15.6589,,67
,CEB,Mactan-Cebu International,Cebu,,180,125.9794,10.3075,8,766
,CEC,Mc Namara Fld,Crescent City,95531,90,-124.2333,41.7833,8,67
,CED,Ceduna,Ceduna,,190,133.6833,-32.1333,-9.5,802
,CEE,Cherepovets,Cherepovets,,140,38.0667,59.2833,-2,770
,CEF,Westover ARB/Metropolitan,Chicopee,1022,140,-72.5347,42.1939,-5,67
,CEG,Chester,Chester,,10,-2.9333,53.1333,,493
,CEH,Chelinda,Chelinda,,100,33.8,-10.5833,,542
,CEI,Chiang Rai,Chiang Rai,,20,99.8167,19.8833,-7,782
,CEJ,Chernigov,Chernigov,,190,31.3,51.5,-2,488
,CEK,Chelyabinsk,Chelyabinsk,,140,61.5,55.3,-2,770
,CEL,Cape Eleuthera,Cape Eleuthera,,10,-76.45,24.9583,5,204
,CEM,Central,Central,99730,150,-144.7833,65.5667,9,67
,CEN,Ciudad Obregon,Ciudad Obregon,,130,-109.85,27.3833,7,148
,CEO,Waco Kungo,Waco Kungo,,0,14.5,-13.3333,-1,502
,CEP,Concepcion,Concepcion,,120,-62.0833,-16.2333,4,312
,CEQ,Mandelieu,Cannes,,200,6.9542,43.5464,1,427
,CER,Maupertus,Cherbourg,,0,-1.4667,49.65,-1,427
,CES,Cessnock,Cessnock,,40,151.0833,-32.0833,-10,61
,CET,Le Pontreau,Cholet,,50,-0.8833,47.0667,-1,427
,CEU,Oconee County,Clemson,29678,40,-82.8833,34.6667,5,67
,CEV,Mettle Field,Connersville,47331,0,-85.1333,39.6333,5,67
,CEW,Bob Sikes,Crestview,32539,10,-86.5167,30.7833,6,67
,CEX,Chena Hot Springs,Chena Hot Springs,99712,30,-146.05,65.05,9,67
,CEY,Calloway County,Murray,,190,-88.3667,36.6667,6,67
,CEZ,Montezuma County,Cortez,81321,140,-108.6333,37.3167,7,67
,CFA,Coffee Point,Coffee Point,,0,-157.5,58.2306,9,67
,CFB,Cabo Frio,Cabo Frio,,130,-42.0167,-22.8833,,316
,CFC,Cacador,Cacador,,60,-51,-26.7833,,316
,CFD,Coulter Field,Bryan,77808,120,-77.4667,18.4333,,67
,CFE,Aulnat,Clermont-Ferrand,,130,3.1667,45.7833,-1,427
,CFF,Cafunfo,Cafunfo,,170,18,-8.7667,-1,502
,CFG,Cienfuegos,Cienfuegos,,0,-80.5167,22.1667,5,219
,CFH,Clifton Hills,Clifton Hills,,160,139.45,-26.5167,-9.5,802
,CFI,Camfield,Camfield,,100,131.35,-17.15,-9.5,802
,CFK,Chefornak,Chefornak,99561,10,-164.2856,60.1492,-9,67
,CFN,Donegal,Carrickfinn,,90,-8.3411,55.0442,,441
,CFO,Confreza,Confreza,,20,-51.5667,-10.6333,4,316
,CFP,Carpentaria Downs,Carpentaria Downs,,80,144.35,-18.7833,-10,802
,CFQ,Creston Valley Airport,Creston,,90,-116.4983,49.0369,-8,906
,CFR,Carpiquet,Caen,,150,-0.45,49.1833,-1,427
,CFS,Coffs Harbour,Coffs Harbour,,100,153.1164,-30.3206,10,802
,CFT,Morenci,Clifton,,110,-109.2,32.95,7,67
,CFU,Ioannis Kapodistrias,Kerkyra,,0,19.9019,39.6014,2,433
,CFV,Municipal,Coffeyville,67337,60,-88.1667,17.5333,,67
,CGA,Craig SPB,Craig,,140,-133.15,55.4833,9,67
,CGB,Intl. Airpt. Marechal Rondon,Cuiaba,,90,-56.1167,-15.6531,4,316
,CGC,Cape Gloucester,Cape Gloucester,,180,148.4325,-5.4592,-10,804
,CGD,Changde,Changde,,40,111.6833,29.0333,8,713
,CGE,Cambridge,Cambridge,21613,20,-76.0333,38.55,5,67
,CGF,Cuyahoga County,Cleveland,44143,10,-81.4839,41.5525,5,67
,CGH,Congonhas International Airport,Sao Paulo,,190,-46.6553,-23.6267,-3,316
,CGI,Cape Girardeau,Cape Girardeau,63780,140,-89.5667,37.2167,6,67
,CGJ,Chingola,Chingola,,210,27.8667,-12.5333,-2,597
,CGK,Soekarno-Hatta International,Jakarta,,200,106.6558,-6.1256,7,832
,CGM,Mambajao,Camiguin,,70,124.6667,9.25,-8,766
,CGN,Cologne/bonn,Cologne,,60,7.15,50.8667,-1,429
,CGO,Zhengzhou,Zhengzhou,,100,113.4167,34.75,-8,713
,CGP,Patenga,Chittagong,,80,91.8167,22.2667,-6,703
,CGQ,Changchun,Changchun,,10,125.3333,43.9167,-8,713
,CGR,Intl. Airport Campo Grande,Campo Grande,,70,-54.6672,-20.4672,4,316
,CGS,College Park,College Park,20740,150,-76.9167,39,5,67
,CGT,Chinguitti,Chinguitti,,30,-12.3667,20.45,,545
,CGU,Ciudad Guayana,Ciudad Guayana,,200,-64.2167,8.5833,4,388
,CGV,Caiguna,Caiguna,,0,125.4667,-32.2667,-8,802
,CGX,Merrill C Meigs (closed),Chicago,60605,160,-87.6083,41.8589,6,67
,CGY,Cagayan De Oro Domestic Airport,Cagayan De Oro,,200,124.6111,8.4156,8,766
,CGZ,Municipal,Casa Grande,85222,80,-111.75,32.8833,7,67
,CHA,Lovell Field,"Chattanooga,TN",37421,130,-85.2039,35.0353,-5,67
,CHB,Chilas,Chilas,,200,74.0833,35.4167,-5,764
,CHC,Christchurch International,Christchurch,,160,172.5333,-43.4889,12,643
,CHD,Williams Gateway Airport,Mesa,85212,10,-111.6556,33.3078,-7,67
,CHE,Reenroe,Caherciveen,,30,-10.2167,51.95,,441
,CHF,Jinhae,Jinhae,,120,128.7,35.1333,-9,778
,CHG,Chaoyang Airport,Chaoyang,,40,120.405,41.6017,-8,713
,CHH,Chachapoyas,Chachapoyas,,50,-78.0333,-6.05,5,368
,CHI,Chicago FSS,Chicago,60644,0,-87.7661,41.8831,6,67
,CHJ,Chipinge,Chipinge,,100,32.6333,-20.2,-2,565
,CHK,Municipal,Chickasha,73018,190,-97.9667,35.0333,6,67
,CHL,Challis,Challis,83226,150,-114.2333,44.5,7,67
,CHM,Chimbote,Chimbote,,160,-78.6,-9.0833,5,368
,CHN,Jeonju,Jeonju,,130,127.7167,35.9333,-9,778
,CHO,Albemarle,Charlottesville,22936,110,-78.45,38.1333,5,67
,CHP,Circle Hot Springs,Circle Hot Springs,99730,150,-144.5833,65.4667,9,67
,CHQ,Souda,Chania,,200,24.1497,35.5317,2,433
,CHR,Chateauroux,Chateauroux,,140,1.7,46.8167,-1,427
,CHS,"Charleston,  AFB Municipal",Charleston,,160,-80.0406,32.8986,-5,67
,CHT,Karewa,Chatham Island,,40,176.5,-43.9167,-12,851
,CHU,Chuathbaluk,Chuathbaluk,99557,80,-159.25,61.6667,9,67
,CHV,Chaves,Chaves,,10,-7.4667,41.7333,,469
,CHW,Jiuhuang,Jiuquan,,210,98.4833,39.7667,8,713
,CHX,Changuinola,Changuinola,,70,-82.4667,9.45,5,162
,CHY,Choiseul Bay,Choiseul Bay,,10,156.45,-6.7,-11,874
,CHZ,State,Chiloquin,97624,40,-121.8667,42.5833,8,67
,CIA,Ciampino,Rome,,110,12.595,41.7994,1,450
,CIB,Ap In The Sky,Catalina Island,,140,-118.4164,33.4164,8,67
,CIC,Chico,Chico,95973,50,-121.85,39.8,8,67
,CID,Cedar Rapids,Cedar Rapids,52404,40,-91.7108,41.8847,-6,67
,CIE,Collie,Collie,,110,116.15,-33.35,-8,802
,CIF,Chifeng,Chifeng,,20,119.0083,42.3333,-8,713
,CIG,Craig-Moffat,Craig,81625,210,-107.5833,40.5,7,67
,CIH,Changzhi,Changzhi,,120,113.1333,36.1833,-8,713
,CIJ,Capitan Anibal Arab,Cobija,,120,-68.7831,-11.0406,-4,312
,CIK,Chalkyitsik,Chalkyitsik,99788,150,-143.75,66.65,9,67
,CIL,Melsing Creek,Council,,130,-163.7333,64.9,9,67
,CIM,Cimitarra,Cimitarra,,70,-74.0333,6.4833,5,327
,CIN,Carroll,Carroll,38201,120,-94.7833,42.05,6,67
,CIO,MCAL Lopez,Concepcion,,0,-73.7333,4.0667,,365
,CIP,Chipata,Chipata,,90,32.6,-13.55,-2,597
,CIQ,Chiquimula,Chiquimula,,40,-89.55,14.8,6,127
,CIR,Cairo,Cairo,62914,70,-76.0167,4.6667,,67
,CIS,Canton Island,Canton Island,,70,-171.6667,-2.8333,11,824
,CIT,Shimkent,Shimkent,,140,69.6,42.3,-2,738
,CIU,Chippewa County,Sault Ste Marie,49788,180,-84.4667,46.25,5,67
,CIV,Chomley,Chomley,,210,-132.2167,55.2167,9,67
,CIW,Canouan Island,Canouan Island,,180,-61.3333,12.7167,4,279
,CIX,Cornel Ruiz,Chiclayo,,100,-79.8333,-6.7833,5,368
,CIY,Comiso,Comiso,,170,14.6,37,-1,450
,CIZ,Coari,Coari,,200,-63.1333,-4.0833,4,316
,CJA,Cajamarca,Cajamarca,,0,-78.5,-7.1333,5,368
,CJB,Peelamedu,Coimbatore,,150,77.0433,11.03,5.5,733
,CJC,El Loa,Calama,,20,-68.9167,-22.4833,4,324
,CJD,Candilejas,Candilejas,,120,-74.5833,2.0667,5,327
,CJH,Chilko Lake,Chilko Lake,,180,-1.0833,51.25,,906
,CJJ,Cheongju,Cheongju,,10,127.4897,36.6372,,778
,CJL,Chitral,Chitral,,0,71.7972,35.8797,-5,764
,CJM,Chumphon Airport,Chumphon,,190,99.1667,10.5,5,782
,CJN,Gillespie Field,El Cajon,92020,40,-116.9725,32.8261,-8,67
,CJS,Abraham Gonzalez International,Ciudad Juarez,,160,-106.4286,31.6361,-6,148
,CJT,Copalar,Comitan,,60,-92.1333,16.25,,148
,CJU,Jeju Airport,Jeju,,110,126.4931,33.5047,-9,778
,CKA,Kegelman Af,Cherokee,73749,70,-77.0333,26.2833,-6,67
,CKB,Benedum,Clarksburg,26330,130,-80.2333,39.3,5,67
,CKC,Cherkassy,Cherkassy,,20,32,49.4167,-2,488
,CKD,Crooked Creek,Crooked Creek,99575,180,-158.1333,61.8667,9,67
,CKE,Clear Lake,Clear Lake,57226,60,-122.8333,39.0333,8,67
,CKG,Chongqing Jiangbei International,Chongqing,,90,106.6417,29.7192,8,713
,CKH,Chokurdah,Chokurdah,,100,147.8833,70.6333,-2,770
,CKI,Croker Island,Croker Island,,40,132.5,-11.0833,-9.5,802
,CKK,Cherokee,Cherokee,73728,170,-91.5,36.2833,6,67
,CKL,Chkalovsky,Chkalovsky,,150,55.3833,51.75,,770
,CKM,Fletcher Field,Clarksdale,38645,120,-90.5122,34.2997,-6,67
,CKN,Municipal,Crookston,56716,200,-96.6167,47.85,6,67
,CKO,Cornelio Procopio,Cornelio Procopio,,200,-50.6022,-23.1522,3,316
,CKR,Crane Island,Crane Island,98245,40,-123,48.6,8,67
,CKS,Carajas,Carajas,,110,-51.3333,-6,3,316
,CKT,Sarakhs,Sarakhs,,150,51.3078,35.9947,,632
,CKU,City,Cordova,,200,-74.7833,9.6333,,67
,CKV,Outlaw Field,Clarksville,37042,210,-87.415,36.6219,-6,67
,CKX,Chicken,Chicken,99732,0,-141.9167,64.0833,9,67
,CKY,Conakry,Conakry,,80,-13.6167,9.5667,,531
,CKZ,Canakkale,Canakkale,,200,26.4333,40.1333,-2,679
,CLA,Comilla,Comilla,,30,91.1833,23.4333,-6,703
,CLB,Castlebar,Castlebar,,50,-9.2803,53.8483,,441
,CLC,Metroport,Clearlake,77598,200,-95.1392,29.5575,6,67
,CLD,Mc Clellan-Palomar Airport,Carlsbad,92011,140,-117.2667,33.1167,-8,67
,CLE,Hopkins International,Cleveland,44135,10,-81.85,41.4167,-5,1
,CLG,Coalinga,Coalinga,93210,20,-120.35,36.15,8,67
,CLH,Coolah,Coolah,,190,149.7,-31.8333,-10,802
,CLI,Clintonville,Clintonville,,0,-81.5333,43.6,,67
,CLJ,Cluj Napoca International Airport,Cluj-Napoca,,10,23.6861,46.7853,2,473
,CLK,Municipal,Clinton,52732,200,-81.5333,43.6,,67
,CLL,Easterwood Field,College Station,77845,200,-96.3639,30.5886,-6,67
,CLM,Fairchild Intl,Port Angeles,98363,180,-123.5,48.1333,8,67
,CLN,Carolina,Carolina,,70,-47.4333,-7.35,3,316
,CLO,Alfonso B. Aragon,Cali,,60,-76.4964,3.4575,5,327
,CLP,Clarks Point,Clarks Point,99569,30,-158.5,58.85,9,67
,CLQ,Colima,Colima,,150,-103.6667,19.3,6,148
,CLR,Calipatria,Calipatria,92233,160,-115.5167,33.1333,8,67
,CLS,Centralia,Chehalis,98532,160,-122.9833,46.6833,8,67
,CLT,Charlotte Douglas,Charlotte,28208,0,-80.9333,35.2167,-5,67
,CLU,Columbus Municipal,Columbus,47203,0,-85.9333,39.1333,5,67
,CLV,Caldas Novas,Caldas Novas,,10,-48.61,-17.7247,3,316
,CLW,Executive,Clearwater,33765,90,-82.7586,27.9767,-5,67
,CLX,Clorinda,Clorinda,,190,-57.6667,-25.3333,3,303
,CLY,Ste Catherine,Calvi,,0,8.8,42.5333,-1,427
,CLZ,Calabozo,Calabozo,,170,-67.4333,8.9333,4,388
,CMA,Cunnamulla,Cunnamulla,,120,145.6167,-28.0333,-10,802
,CMB,Bandaranayake,Colombo,,90,79.8831,7.1792,,711
,CMC,Camocim,Camocim,,30,-40.8333,-2.9,3,316
,CMD,Cootamundra,Cootamundra,,120,148.05,-34.6333,-10,802
,CME,Ciudad Del Carmen,Ciudad Del Carmen,,20,-91.6333,18.7,6,148
,CMF,Chambery,Chambery,,190,5.9167,45.5667,1,427
,CMG,Intl. Airport Corumba,Corumba,,110,-57.6669,-19.0114,4,316
,CMH,Port Columbus Intl,Columbus,43219,140,-82.8833,40,5,67
,CMI,University Of Illinois Willard,Champaign,61822,200,-88.2833,40.0333,6,67
,CMJ,Chi Mei,Chi Mei,,20,119.4167,23.25,-8,781
,CMK,Club Makokola,Club Makokola,,50,35.1333,-14.3,-2,542
,CML,Camooweal,Camooweal,,110,138.1333,-19.9167,-10,802
,CMM,Carmelita,Carmelita,,210,-90.1667,17.5,6,127
,CMN,Mohamed V,Casablanca,,30,-7.5833,33.3667,,548
,CMO,Obbia,Obbia,,10,48.5167,5.3667,-3,573
,CMP,Campo Alegre,Santana Do Araguaia,,140,-50.3333,-9.3333,3,316
,CMQ,Clermont,Clermont,,100,147.5,-22.8667,-10,802
,CMR,Colmar-houssen,Colmar,,10,7.3667,48.0833,1,427
,CMS,Scusciuban,Scusciuban,,30,50.4583,10.5,-3,573
,CMT,Cameta,Cameta,,0,-49.5,-2.25,3,316
,CMU,Chimbu,Kundiawa,,40,144.9833,-5.9833,-10,804
,CMV,Coromandel,Coromandel,,0,175.5,-36.75,-12,851
,CMW,Ign Agramonte Intl,Camaguey,,160,-77.8667,21.4167,5,219
,CMX,Houghton County,Hancock,49913,0,-88.5733,47.1236,5,67
,CMY,Fort Mccoy,Sparta,54656,60,-90.7833,43.95,6,67
,CMZ,Caia,Caia,,10,32.9667,-25.3167,,550
,CNA,Cananea,Cananea,,110,-110.2667,30.9833,7,148
,CNB,Coonamble,Coonamble,,90,148.3833,-30.9833,-10,802
,CNC,Coconut Island,Coconut Island,,110,143.0667,-10.05,-10,802
,CND,Kogalniceanu,Constanta,,30,28.4883,44.3622,2,473
,CNE,Canon City,Canon City,,170,-105.1,38.4167,7,67
,CNF,Tancredo Neves International,"Belo Horizonte, Minas Gerais",,10,-43.9689,-19.6336,-3,316
,CNG,Parvaud,Cognac,,140,-0.3333,45.7,-1,427
,CNH,Municipal,Claremont,3743,140,-72.3667,43.3667,5,67
,CNI,Changhai,Changhai,,100,122.5167,39.2667,8,713
,CNJ,Cloncurry,Cloncurry,,190,140.5044,-20.6686,10,802
,CNK,Blosser Municipal,Concordia,66901,210,-97.65,39.55,6,67
,CNL,Sindal,Sindal,,20,10.2167,57.4833,-1,419
,CNM,Carlsbad,Carlsbad,88220,30,-104.2667,32.3333,7,67
,CNN,Chulman,Chulman,,130,124.8333,56.8833,,770
,CNO,Chino,Chino,91762,120,-117.7,34.0167,8,67
,CNP,Neerlerit Inaat,Neerlerit Inaat,,10,-22.6583,70.7431,,975
,CNQ,Camba Punta,Corrientes,,80,-58.7667,-27.45,3,303
,CNR,Chanaral,Chanaral,,0,-70.6167,-26.3167,4,324
,CNS,Cairns,Cairns,,160,145.75,-16.8833,-10,802
,CNT,Charata,Charata,,160,-61.2167,-27.2167,3,303
,CNU,Martin Johnson,Chanute,66720,210,-95.45,37.6833,6,67
,CNV,Canavieiras,Canavieiras,,120,-38.8667,-15.6333,3,316
,CNW,TSTC Waco Airport,Waco,76705,10,-97.0742,31.6378,-6,67
,CNX,Chiang Mai International,Chiang Mai,,100,98.9628,18.7683,7,782
,CNY,Canyonlands Field,Moab,84532,80,-109.75,38.7667,7,67
,CNZ,Cangamba,Cangamba,,0,19.8833,-13.6833,-1,502
,COA,Columbia,Columbia,29170,140,-120.4167,38.0333,8,67
,COB,Coolibah,Coolibah,,160,130.9667,-15.6667,-9.5,802
,COC,Concordia,Concordia,,20,-58.0167,-31.3,3,303
,COD,Yellowstone Regional,Cody/Yellowstone,82414,0,-109.0333,44.5167,7,67
,COF,Patrick AFB,Cocoa,,200,80.6,28.2333,,67
,COG,Mandinga,Condoto,,40,-76.6167,5.1,5,327
,COH,Cooch Behar,Cooch Behar,,110,89.4667,26.3333,-5.5,733
,COI,Merritt Island,Cocoa,32952,150,-80.6333,28.1333,5,67
,COJ,Coonabarabran,Coonabarabran,,160,149.2667,-31.3333,-10,802
,COK,Cochin International,Kochi,,130,76.4019,10.1519,5.5,733
,COL,Isle Of Coll,Isle Of Coll,,180,-6.6167,56.6167,,493
,COM,Coleman,Coleman,76834,40,-99.4333,31.8333,6,67
,CON,Concord,Concord,94520,130,-71.5022,43.2028,-5,67
,COO,Cotonou,Cotonou,,180,2.3833,6.35,-1,519
,COP,Cooperstown - Westville Airport,Cooperstown,13326,20,-74.8911,42.6292,-5,67
,COQ,Choibalsan,Choibalsan,,120,114.9,48.1333,-8,751
,COR,Pajas Blancas,Cordoba,,10,-64.2167,-31.3167,3,303
,COS,Colorado Springs,Colorado Springs,80916,130,-104.7167,38.8167,7,67
,COT,Cotulla,Cotulla,78014,70,-99.2333,28.4333,6,67
,COU,Columbia Regional,Columbia,65201,110,-92.3333,38.95,6,67
,COV,Covilha,Covilha,,120,-7.5,40.2833,,469
,COW,Coquimbo,Coquimbo,,180,-57.7333,-33.45,,324
,COX,Congo Town,Congo Town,,140,-77.5861,24.15,5,204
,COY,Coolawanyah,Coolawanyah,,20,117.7667,-21.8,-8,802
,COZ,Constanza,Constanza,,70,-70.7167,18.9,4,224
,CPA,A. Tubman,Cape Palmas,,100,-7.7,4.3833,,537
,CPB,Capurgana,Capurgana,,120,-77.3333,8.6333,5,327
,CPC,Chapelco,San Martin DeLos Andes,,80,-71.1333,-40.0833,3,303
,CPD,Coober Pedy,Coober Pedy,,30,134.75,-29.05,-9.5,802
,CPE,Campeche International,Campeche,,180,-90.5167,19.8333,6,148
,CPF,Cepu,Cepu,,120,111.5333,-7.1833,-7,832
,CPG,Carmen De Patagones,Carmen De Patagones,,150,-62.9833,-40.8,3,303
,CPH,Kastrup,Copenhagen,,210,12.6558,55.6181,1,419
,CPI,Cape Orford,Cape Orford,,140,-61.0667,-52,,804
,CPL,Chaparral,Chaparral,,180,-75.75,3.7,5,327
,CPM,Compton,Compton,90220,0,-118.2436,33.89,-8,67
,CPN,Cape Rodney,Cape Rodney,,130,148.3667,-10.1833,-10,804
,CPO,Chamonate,Copiapo,,20,-70.35,27.3667,4,324
,CPQ,International,Campinas,,80,-47.1333,-23,3,316
,CPR,Natrona County International Airport,Casper,82604,10,-106.4644,42.9081,-7,67
,CPS,St. Louis Downtown Airport,"St Louis, Il",,10,-90.1561,38.5708,-6,67
,CPT,Cape Town International,Cape Town,,200,18.6017,-33.9647,2,562
,CPU,Cururupu,Cururupu,,200,-44.8667,-1.8,3,316
,CPV,Joao Suassuna,Campina Grande,,130,-35.9,-7.2667,3,316
,CPX,Culebra,Culebra,,150,-65.3,18.3167,4,3
,CQA,Canarana Airport,Canarana,,100,-44.5333,-4.45,,316
,CQD,Shahre-kord,Shahre-kord,,60,50.8333,32.3,,632
,CQF,Calais,Calais,,180,1.95,50.9667,-1,427
,CQM,Ciudad Real Central,Ciudad Real,,180,-3.97,38.8564,1,482
,CQP,Cape Flattery,Cape Flattery,,70,147.5,-18.2,-10,802
,CQT,Caquetania,Caquetania,,10,-74.2167,2.0333,5,327
,CRA,Craiova,Craiova,,20,23.8,44.4333,-2,473
,CRB,Collarenebri,Collarenebri,,160,148.5758,-29.5258,-10,802
,CRC,Cartago,Cartago,,130,-75.9333,4.7667,5,327
,CRD,Comodoro Rivadavia,Comodoro Rivadavia,,70,-67.4667,-45.7833,3,303
,CRE,Grand Strand Airport,Myrtle Beach,29582,160,-78.7239,33.8117,-5,67
,CRF,Carnot,Carnot,,190,15.9,4.9333,-1,509
,CRG,Craig Municipal,Jacksonville,32225,170,-81.5025,30.3339,5,67
,CRH,Cherribah,Cherribah,,30,151.95,-27.65,10,802
,CRI,Crooked Island,Crooked Island,,150,-74.15,22.75,5,204
,CRJ,Coorabie,Coorabie,,70,132.3,-31.9,-9.5,802
,CRK,Diosdado Macapagal International (Clark Int),Angeles City,,210,120.5333,15.1833,-8,766
,CRL,Charleroi Brussels South,Brussels,,90,4.4528,50.46,1,409
,CRM,National,Catarman,,110,124.6333,12.5167,-8,766
,CRN,Cromarty,Cromarty,,0,-4.05,57.65,,493
,CRO,Corcoran,Corcoran,93212,110,-119.55,36.1,8,67
,CRP,Corpus Christi International Airport,Corpus Christi,78406,60,-97.5011,27.7703,-6,67
,CRQ,Caravelas,Caravelas,,210,-39.25,-17.65,3,316
,CRR,Ceres,Ceres,,110,-61.8333,-29.8667,3,303
,CRS,Corsicana,Corsicana,75110,30,-96.4667,32.1,6,67
,CRT,Municipal,Crossett,71635,100,-91.9667,33.1333,6,67
,CRU,Carriacou Is,Carriacou Is,,160,-61.4667,12.4667,4,273
,CRV,Crotone,Crotone,,190,17.0833,39,-1,450
,CRW,Yeager,Charleston,25311,60,-81.6,38.3667,5,67
,CRX,Roscoe Turner,Corinth,38834,140,-88.6,34.9,6,67
,CRY,Carlton Hill,Carlton Hill,,20,128.5,-15.7,-8,802
,CRZ,Turkmenabad,Turkmenabad,,70,63.6167,39.0833,-2,785
,CSA,Isle Of Colonsay,Isle Of Colonsay,,180,-6.2439,56.0589,,493
,CSB,Caransebes,Caransebes,,190,22.425,45.5,-2,473
,CSC,Canas,Canas,,20,-85.1167,10.4167,6,110
,CSD,Cresswell Downs,Cresswell Downs,,100,135.9167,-17.9667,-9.5,802
,CSF,Creil,Creil,,10,2.4833,49.2667,-1,427
,CSH,Solovky,Solovetsky,,50,35.6667,65.05,9,67
,CSI,Casino,Casino,,200,-153.1667,29.3003,10,802
,CSJ,Cape St Jacques,Cape St Jacques,,150,107.0667,10.35,-7,791
,CSK,Cap Skirring,Cap Skirring,,190,-16.75,12.4,,569
,CSM,Sherman,Clinton,73647,190,-98.9833,35.5167,6,67
,CSN,Carson City,Carson City,89706,60,-119.7333,39.2,8,67
,CSP,Coast Guard Heliport,Cape Spencer,,190,-65.9167,45.2,,67
,CSQ,Municipal,Creston,50801,20,-94.3667,41.0667,6,67
,CSR,Casuarito,Casuarito,,170,-68.1333,5.8333,5,327
,CSS,Cassilandia,Cassilandia,,20,-51.75,-19.15,4,316
,CST,Castaway,Castaway,,190,177.1222,-17.6194,-12,821
,CSU,Santa Cruz Do Sul,Santa Cruz Do Sul,,160,-52.4333,-29.7167,,316
,CSV,Memorial,Crossville,38555,130,-85.0833,35.95,6,67
,CSW,Colorado do Oeste,Colorado do Oeste,,200,-51.95,-22.8167,,316
,CSX,Changsha,Changsha,,90,112.9583,28.0711,8,713
,CSY,Cheboksary,Cheboksary,,130,40.3472,56.0903,3,770
,CSZ,Brigadier Hector Ruiz,Coronel Suarez,,80,-61.9167,-37.4667,,303
,CTA,Fontanarossa,Catania,,160,15.0667,37.4667,-1,450
,CTB,Cut Bank,Cut Bank,59427,160,-112.3333,48.6333,7,67
,CTC,Catamarca,Catamarca,,150,-65.7797,-28.4483,3,303
,CTD,Chitre,Chitre,,180,-80.4167,7.9833,,162
,CTE,Carti,Carti,,210,-79.1,9.3167,5,162
,CTF,Coatepeque Airport,Coatepeque,,50,-90.15,14.1667,,127
,CTG,Rafael Nunez,Cartagena,,80,-75.5167,10.45,5,327
,CTH,Chestercounty Carlson,Coatesville,,200,-75.8167,39.9667,5,67
,CTI,Cuito Cuanavale,Cuito Cuanavale,,90,19.1667,-15.1667,-1,502
,CTK,Canton,Canton,57013,60,-96.5833,43.3,6,67
,CTL,Charleville,Charleville,,210,146.2667,-26.4167,-10,802
,CTM,Chetumal,Chetumal,,80,-88.3167,18.4833,6,148
,CTN,Cooktown,Cooktown,,200,145.1833,-15.45,-10,802
,CTO,Peconic River,Calverton,11949,70,-72.75,40.9167,5,67
,CTP,Carutapera,Carutapera,,180,-46.0167,-1.25,3,316
,CTQ,Do Palmar,Santa Vitoria,,120,-50.1333,-18.8333,-3,316
,CTR,Cattle Creek,Cattle Creek,,200,131,-17.5833,-9.5,802
,CTS,New Chitose Airport,Sapporo,,140,141.6667,42.8,-9,736
,CTT,Le Castellet,Le Castellet,,120,5.7889,43.2556,-1,427
,CTU,Shuangliu,Chengdu,,80,103.9472,30.5786,8,713
,CTW,Cottonwood,Cottonwood,86326,120,-112.0333,34.7333,7,67
,CTX,Cortland,Cortland,13045,100,33.6167,36.5,,67
,CTY,Cross City,Cross City,32628,160,-83.1167,29.65,5,67
,CTZ,Sampson County,Clinton,28328,160,-78.3333,35,5,67
,CUA,Ciudad Constitucion,Ciudad Constitucion,,190,-111.65,25.05,7,148
,CUB,Owens Field,Columbia,,80,-67.8667,-10.75,,67
,CUC,Camilo Dazo,Cucuta,,50,-72.5333,7.9167,5,327
,CUD,Caloundra,Caloundra,,200,153.15,-26.8,-10,802
,CUE,Cuenca,Cuenca,,100,-78.9667,-2.9,5,337
,CUF,Levaldigi,Cuneo,,50,7.6175,44.5353,-1,450
,CUG,Cudal,Cudal,,100,148.7028,-33.3,-10,802
,CUH,Municipal,Cushing,74023,190,-96.7667,35.9833,6,67
,CUI,Currillo,Currillo,,40,-72,4.6667,5,327
,CUJ,Culion,Culion,,90,120.0167,11.8833,-8,766
,CUK,Caye Caulker,Caye Caulker,,200,-88.05,17.75,,106
,CUL,Fedl De Bachigualato,Culiacan,,200,-107.4833,22.75,7,148
,CUM,Cumana,Cumana,,0,-64.1833,10.45,4,388
,CUO,Caruru,Caruru,,90,-71.2333,1.0333,5,327
,CUP,Carupano,Carupano,,90,-63.25,10.6667,4,388
,CUQ,Coen,Coen,,210,143.1167,-13.7833,-10,802
,CUR,Hato International Airport,Curacao,,130,-68.9597,12.1889,-4,259
,CUS,Municipal,Columbus,88029,200,-107.6333,31.8333,7,67
,CUT,Cutral,Cutral,,140,-69.25,-38.9667,3,303
,CUU,Gen Fierro Villalobos,Chihuahua,,130,-106,28.6833,6,148
,CUV,Casigua,Casigua,,210,-72.55,8.7667,4,388
,CUW,Cube Cove,Cube Cove,,140,-133.7667,58.35,9,67
,CUY,Cue,Cue,,30,117.9167,-27.45,-8,802
,CUZ,Velazco Astete,Cuzco,,0,-71.9667,-13.5333,5,368
,CVB,Chungribu,Chungribu,,90,144.7333,-4.8,,804
,CVC,Cleve,Cleve,,120,136.5,-33.7,-9.5,802
,CVE,Covenas,Covenas,,200,-75.7333,9.4,5,327
,CVF,Courchevel,Courchevel,,50,6.6667,45.5,-1,427
,CVG,Cincinnati/Northern Kentucky,Covington,41042,170,-84.6678,39.0489,-5,67
,CVH,Caviahue,Caviahue,,210,-71.0139,-37.9167,3,303
,CVI,Caleta Olivia,Caleta Olivia,,180,-67.5167,-46.4333,3,303
,CVJ,General Mariano Matamoros Airport,Cuernavaca,,40,-99.2614,18.8347,-6,148
,CVL,Cape Vogel,Cape Vogel,,20,150.05,-9.7,-10,804
,CVM,Ciudad Victoria,Ciudad Victoria,,20,-98.8667,23.7167,6,148
,CVN,Municipal,Clovis,,180,-103.0833,34.4167,7,67
,CVO,Albany,Albany,12110,190,-123.2833,44.5,8,67
,CVQ,Carnarvon,Carnarvon,,60,113.6667,-24.8833,-8,802
,CVR,Hughes,Culver City,90232,170,-118.4,34.0167,8,67
,CVS,Cannon AFB,Clovis,,190,-72.55,19.15,,67
,CVT,West Midlands International,Coventry,,170,-1.4797,52.3697,,493
,CVU,Corvo Island,Corvo Island,,30,-31.1,39.7,,469
,CWA,Central Wisconsin,Wausau,,160,-89.6831,44.7694,6,67
,CWB,Afonso Pena International Airport,Curitiba,,20,-49.1758,-25.5286,-3,316
,CWC,Chernovtsy,Chernovtsy,,20,25.9667,48.2667,-2,488
,CWG,Callaway Gardens,Callaway Gardens,,20,-84.8833,32.8333,5,67
,CWI,Clinton,Clinton,47842,110,-90.35,41.8333,6,67
,CWL,Cardiff,Cardiff,,80,-3.35,51.4,,493
,CWO,Ft Wolter AAF,Mineral Wells,,140,137.5333,-5.1333,,67
,CWP,Campbellpore,Campbellpore,,20,72.3667,33.7667,-5,764
,CWR,Cowarie,Cowarie,,30,138.3333,-27.7167,-9.5,802
,CWS,Center Island,Center Island,98261,190,122.8314,47.485,,67
,CWT,Cowra,Cowra,,190,148.65,-33.85,-10,802
,CWW,Corowa,Corowa,,110,146.35,-35.9833,-10,802
,CXA,Caicara Del Orinoco,Caicara Del Orinoco,,10,-66.165,7.6261,-4,388
,CXC,Chitina Arpt,Chitina,99566,0,-144.4167,61.5667,9,67
,CXF,Coldfoot,Coldfoot,,210,-150.1667,67.2667,9,67
,CXH,Coal Harbour,Vancouver,,110,-123.1158,49.2897,-8,906
,CXI,Cassidy International Airport,Christmas Island,,200,-157.3497,1.9861,-10,686
,CXJ,Campo Dos Bugres,Caxias Do Sul,,30,-51.1875,-29.1969,-3,316
,CXL,International,Calexico,92231,80,-115.5167,32.6667,8,67
,CXN,Candala,Candala,,180,49.9583,11.8333,-3,573
,CXO,Montgomery Co,Conroe,77301,0,-95.45,30.3167,6,67
,CXP,Tunggul Wulung,Cilacap,,50,109,7.7333,-7,832
,CXQ,Christmas Creek,Christmas Creek,,90,125.9167,-18.9167,-8,802
,CXR,Nha Trang (no Longer in Operation),Nha Trang,,10,109.1922,12.2275,7,791
,CXT,Charters Towers,Charters Towers,,170,146.2667,-20.05,-10,802
,CXY,Cat Cays,Cat Cays,,170,-75.4536,24.315,5,204
,CYA,Les Cayes,Les Cayes,,140,-73.7833,18.2667,5,238
,CYB,Gerrard-Smith,Cayman Brac Is,,100,-79.825,19.7167,5,233
,CYC,Caye Chapel,Caye Chapel,,190,-88.0333,17.7,6,106
,CYE,Crystal Lake,Crystal Lake,72722,10,-75.8322,41.2103,5,67
,CYF,Chefornak SPB,Chefornak,,40,-164.1833,60.2,9,67
,CYG,Corryong,Corryong,,160,147.9,-36.25,-10,802
,CYI,Chiayi,Chiayi,,20,120.3833,23.4667,8,781
,CYL,Coyoles,Coyoles,,130,-86.6833,15.4833,6,131
,CYM,Chatham SPB,Chatham,,210,-134.75,57.5,9,67
,CYO,Cayo Largo Del Sur,Cayo Largo Del Sur,,0,-81.5508,21.6175,5,219
,CYP,Calbayog,Calbayog,,130,124.55,12.0833,-8,766
,CYR,Laguna De Los Patos,Colonia,,170,-57.7667,-34.45,3,385
,CYS,Cheyenne,Cheyenne,82009,100,-104.8,41.15,7,67
,CYT,Intermediate,Yakataga,,90,-142.4833,60.0833,9,67
,CYU,Cuyo,Cuyo,,160,121,10.85,-8,766
,CYX,Cherskiy,Cherskiy,,80,161.35,68.75,-2,770
,CYZ,Cauayan,Cauayan,,150,121.75,16.9167,-8,766
,CZA,Chichen Itza,Chichen Itza,,110,-88.5667,20.6667,6,148
,CZB,Carlos Ruhl,Cruz Alta,,50,-53.5,-28.6333,3,316
,CZC,Copper Centre,Copper Centre,99573,60,12.65,42.4833,,67
,CZE,Coro,Coro,,20,-69.6667,11.4167,4,388
,CZF,Cape Romanzof,Cape Romanzof,99662,90,-166,61.7333,9,67
,CZH,Corozal,Corozal,,70,-88.5,18.3333,6,106
,CZJ,Corazon De Jesus,Corazon De Jesus,,70,-77.9833,9.0167,5,162
,CZK,Cascade Locks/Stevens,Cascade Locks,,190,-121.9,45.6667,8,67
,CZL,Ain El Bey,Constantine,,60,6.6192,36.2853,-1,500
,CZM,Cozumel,Cozumel,,70,-86.9333,20.5167,6,148
,CZN,Chisana Field,Chisana,99588,10,-142.05,62.0833,9,67
,CZO,Chistochina,Chistochina,99586,60,-144.6667,62.5667,9,67
,CZP,Cape Pole,Cape Pole,,70,-133.7833,55.9667,9,67
,CZS,Intl. Airpt. Cruzeiro Do Sul,Cruzeiro Do Sul,,90,-72.7694,-7.5994,5,316
,CZT,Carrizo Springs,Carrizo Springs,78834,200,-99.8667,28.5167,6,67
,CZU,Corozal,Corozal,,180,-75.2833,9.3333,5,327
,CZW,Czestochowa,Czestochowa,,70,19.1,50.8167,-1,467
,CZX,Changzhou,Changzhou,,80,119.9667,31.7,-8,713
,CZY,Cluny,Cluny,,130,139.5,-24.5,-10,802
,CZZ,Campo,Campo,77437,190,-72.1,18.45,,67
,DAA,Davison AAF,Fort Belvoir,22060,120,-77.1833,38.7167,,67
,DAB,Regional,Daytona Beach,32114,210,-81.05,29.1833,-5,67
,DAC,Zia International,Dhaka,,150,90.3978,23.8433,6,703
,DAD,Da Nang,Da Nang,,0,108.1833,16.0333,-7,791
,DAE,Daparizo,Daparizo,,110,94.3333,27.5,-5.5,733
,DAF,Daup,Daup,,210,145.9583,-4.7417,10,804
,DAG,Barstow-Daggett,Daggett,92365,0,-116.7833,34.85,8,67
,DAH,Dathina,Dathina,,80,46.1333,13.8667,-3,694
,DAI,Darjeeling,Darjeeling,,50,88.25,26.75,,733
,DAJ,Dauan Island,Dauan Island,,20,142.5167,-9.4333,-10,802
,DAK,Dakhla,Dakhla Oasis,,170,29.1667,25.5,,591
,DAL,Love Field,Dallas,75235,180,-96.85,32.8528,6,67
,DAM,International,Damascus,,190,36.5142,33.4106,2,963
,DAN,Municipal,Danville,,10,-79.35,36.5667,5,67
,DAO,Dabo,Dabo,,90,42.1667,13.1333,,804
,DAP,Darchula,Darchula,,90,80.5,29.6667,-5.8,755
,DAR,International,Dar Es Salaam,,30,39.2019,-6.8756,3,585
,DAS,Great Bear Lake,Great Bear Lake,,100,-1,66,,906
,DAT,Datong,Datong,,190,113.4822,40.0603,8,713
,DAU,Daru,Daru,,180,143.2,-9.0833,-10,804
,DAV,Enrique Malek,David,,200,-82.435,8.3908,5,162
,DAX,Daxian,Daxian,,140,107.5,31.3,-8,713
,DAY,James Cox Dayton Intl,"Dayton, Oh",45377,20,-84.1833,39.75,5,67
,DAZ,Darwaz,Darwaz,,110,70.8833,38.4667,-4.5,701
,DBA,Dalbandin,Dalbandin,,90,64.4039,28.8753,-5,764
,DBB,Alalamain Intl.,Dabaa City,,20,28.0833,30.15,,591
,DBD,Dhanbad,Dhanbad,,20,86.45,23.8,-5.5,733
,DBM,Debra Marcos,Debra Marcos,,120,37.7667,10.2833,-3,522
,DBN,Municipal,Dublin,31021,140,-82.9833,32.55,5,67
,DBO,Dubbo,Dubbo,,20,148.5747,-32.2172,10,802
,DBP,Debepare,Debepare,,100,141.9,-6.2833,-10,804
,DBQ,Municipal,Dubuque,,40,-90.7167,42.4,6,67
,DBS,Dubois,Dubois,83446,180,-112.2333,44.1667,7,67
,DBT,Debra Tabor,Debra Tabor,,150,38,11.9667,3,522
,DBU,Dambulu Oya Tank,Dambula,,10,32.8961,-21.5228,,711
,DBV,Dubrovnik,Dubrovnik,,0,18.2683,42.5614,1,415
,DBY,Dalby,Dalby,,70,151.2672,-27.1553,10,802
,DCA,Ronald Reagan Washington National Airport,Washington,22202,180,-77.0378,38.8519,-5,67
,DCF,Cane Field,Roseau,,120,-61.3922,15.3367,-4,221
,DCI,Rafsu Decimomannu,Decimomannu,,80,8.9667,39.3167,-1,450
,DCK,Dahl Creek Arpt,Dahl Creek,99751,10,-156.9,66.9333,9,67
,DCM,Mazamet,Castres,,110,2.2856,43.5558,-1,427
,DCR,Decatur Hi-Way,Decatur,46733,160,-84.9333,40.8333,5,67
,DCT,Duncan Town,Duncan Town,,10,-75.7333,22.1833,5,204
,DDC,Dodge City Municipal,Dodge City,67801,30,-99.9667,37.7667,6,67
,DDG,Dandong,Dandong,,190,124.25,40.2,-8,713
,DDI,Daydream Is,Daydream Is,,170,148.1833,-20.1667,-10,802
,DDM,Dodoima,Dodoima,,170,147.45,-8.75,-10,804
,DDN,Delta Downs,Delta Downs,,30,141.3,-16.9167,-10,802
,DDP,Dorado Beach,Dorado,,100,-66.25,18.5,-4,3
,DDU,Dadu,Dadu,,200,71.3028,30.4917,,764
,DEA,Dera Ghazi Khan,Dera Ghazi Khan,,180,70.4858,29.9611,5,764
,DEB,Debrecen,Debrecen,,60,21.6028,47.4814,-1,437
,DEC,Decatur Arpt,Decatur,,210,-88.8667,39.8333,6,67
,DED,Dehra Dun,Dehra Dun,,20,78.1803,30.1897,5.5,733
,DEF,Dezful,Dezful,,170,48.4047,32.3803,3.5,632
,DEH,Municipal,Decorah,52101,210,-91.8333,43.3167,6,67
,DEI,Denis Island,Denis Island,,140,55.6667,-3.8,-4,570
,DEL,Indira Gandhi Intl,New Delhi,,0,77.1181,28.5694,5.5,733
,DEM,Dembidollo,Dembidollo,,0,34.8667,8.55,-3,522
,DEN,Denver International,Denver,80249,140,-104.6731,39.8617,-7,67
,DEO,Hyatt Regency H/P,Dearborn,48126,150,-83.2189,42.3128,5,67
,DEP,Deparizo,Deparizo,,30,50.0739,31.0161,,733
,DER,Derim,Derim,,90,146.8167,-6.1,-10,804
,DES,Desroches,Desroches,,80,55.0167,-4.9997,-4,570
,DET,Detroit City,Detroit,48234,20,-83.0097,42.4092,-5,67
,DEZ,Al Jafrah,Deirezzor,,60,40.15,35.3333,-2,676
,DFI,Memorial,Defiance,43512,170,-84.3667,41.2833,5,67
,DFP,Drumduff,Drumduff,,210,143.0333,-16,-10,802
,DFW,Dallas/Fort Worth International,Dallas,75038,0,-97.0381,32.8969,-6,67
,DGA,Dangriga,Dangriga,,70,-88.5833,17.1833,6,106
,DGB,Danger Bay,Danger Bay,,80,-152.75,58.0833,9,67
,DGC,Degahbur,Degahbur,,140,43.5833,8.2333,-3,522
,DGD,Dalgaranga,Dalgaranga,,130,117.0333,-27.7667,,802
,DGE,Mudgee,Mudgee,,20,149.1667,-32.7833,-10,802
,DGF,Bisbee-Douglas International,Douglas,85607,30,-109.6536,31.4689,-7,67
,DGK,Dugong,Dugong,,150,124.8547,6.9003,,550
,DGL,Douglas Municipal,Douglas,85607,170,14.9833,12.6167,7,67
,DGM,Dongguan,Dongguan,,10,105.2,27.0667,,713
,DGN,NAF,Dahlgren,,180,15.35,77.5333,,67
,DGO,Guadalupe Victoria,Durango,,70,-104.6667,24,6,148
,DGP,Daugavpils,Daugavpils,,60,29.6833,55.9333,2,451
,DGR,Dargaville,Dargaville,,50,173.8667,-35.9333,-12,851
,DGT,Dumaguete,Dumaguete,,110,123.3,9.3,8,766
,DGU,Dedougou,Dedougou,,0,-3.4833,12.4667,,593
,DGW,Converse County,Douglas,82633,90,-105.4,42.75,7,67
,DHA,King Abdulaziz AB,Dhahran,,190,50.1519,26.2656,3,670
,DHD,Durham Downs,Durham Downs,,150,141.9167,-27.0667,-10,802
,DHF,Al Dhafra Military Apt,Abu Dhabi,,0,54.3833,24.45,,678
,DHI,Dhangarhi,Dhangarhi,,70,80.675,28.25,-5.8,755
,DHL,Dhala,Dhala,,70,44.7292,13.7375,-3,694
,DHM,Gaggal Airport,Dharamsala,,80,76.2667,32.3,-5.5,733
,DHN,Dothan Arpt,Dothan,36350,40,-85.45,31.3167,6,67
,DHR,De Kooy/Den Helder Airport,Den Helder,,80,4.7808,52.9244,1,461
,DHT,Dalhart,Dalhart,79022,60,42.89,12.1861,,67
,DIB,Dibrugarh,Dibrugarh,,170,94.9,27.4833,5.5,733
,DIC,Dili City Heliport,Dili,,30,125.5333,-8.5667,9,862
,DIE,Antsiranana/Arrachart,Antsiranana,,30,49.3,-12.35,-3,541
,DIG,Diqing,Diqing,,120,109.3075,26.1256,,713
,DIJ,Dijon,Dijon,,110,5.0833,47.2667,-1,427
,DIK,Dickinson,Dickinson,58601,160,-102.8,46.8,7,67
,DIL,Presidente Nicolau Lobato International Airport,Dili,,0,125.5247,-8.5464,9,862
,DIM,Dimbokro,Dimbokro,,0,-4.7,6.65,,533
,DIN,Dien Bien,Dien Bien Phu,,60,103.0167,21.3833,,791
,DIO,Diomede Island,Diomede Island,,160,-168.95,65.75,9,67
,DIP,Diapaga,Diapaga,,180,1.7833,12.05,,593
,DIQ,Divinopolis,Divinopolis,,120,-41.8833,-20.75,,316
,DIR,Aba Tenna D Yilma,Dire Dawa,,180,41.8667,9.6333,-3,522
,DIS,Loubomo,Loubomo,,70,12.5,-4.2167,-1,515
,DIU,Diu,Diu,,110,70.9833,20.7333,,733
,DIV,Divo,Divo,,30,-5.3667,5.8333,,533
,DIW,Mawella Lagoon,Dickwella,,200,81,6.9667,,711
,DIY,Diyarbakir,Diyarbakir,,170,40.2,37.9,-2,679
,DJA,Djougou,Djougou,,90,1.6667,9.7,-1,519
,DJB,Sultan Taha Syarifudn,Jambi,,40,103.6444,-1.6381,7,832
,DJE,Djerba-Zarzis,Djerba,,70,10.7756,33.875,1,588
,DJG,Inedbirenne,Djanet,,110,9.5,24.45,-1,500
,DJJ,Sentani,Jayapura,,120,140.5167,-2.5833,-9,832
,DJM,Djambala,Djambala,,70,14.75,-2.5333,-1,515
,DJN,Delta Junction,Delta Junction,99737,210,-145.6833,64.0333,9,67
,DJO,Daloa,Daloa,,180,-6.4667,6.4167,,533
,DJU,Djupivogur,Djupivogur,,190,-14.1667,64.6667,,439
,DKI,Dunk Island,Dunk Island,,160,146.1667,-17.9333,-10,802
,DKK,Dunkirk,Dunkirk,14048,100,-79.3333,42.4833,5,67
,DKS,Dikson,Dikson,,190,80.3667,73.5167,-2,770
,DKV,Docker River,Docker River,,120,129.1167,-24.8667,-9.5,802
,DLA,Douala,Douala,,50,9.7167,4.0167,-1,504
,DLB,Dalbertis,Dalbertis,,150,23.8911,56.7417,,804
,DLC,Dalian,Dalian,,180,121.5386,38.9656,8,713
,DLD,Dagali Airport,Geilo,,190,8.5,60.4667,-1,465
,DLE,Tavaux,Dole,,210,5.435,47.0428,1,427
,DLF,Laughlin Afb,Del Rio,78843,90,-100,29.5167,,67
,DLG,Municipal,Dillingham,99576,70,-158.4667,59.0667,9,67
,DLH,Duluth International,Duluth,55811,40,-92.1833,46.8333,6,67
,DLI,Lienkhang,Dalat,,50,108.3667,11.75,-7,791
,DLK,Dulkaninna,Dulkaninna,,100,139.4667,-29.0167,-9.5,802
,DLL,Dillon,Dillon,59725,10,-79.3667,34.4167,5,67
,DLM,Dalaman,Dalaman,,170,28.7833,36.7167,2,679
